,name,Code,lat,lon,ligne,ville
0,L'Etoile,SEM:GENLETOILE,45.13788,5.7033,A,Le Pont-de-Claix
1,Edmée Chandon,SEM:GENCHANDON,45.13671,5.7083,A,Le Pont-de-Claix
2,Denis Papin,SEM:GENDENPAPIN,45.13832,5.71307,A,Échirolles
3,Auguste Delaune,SEM:GENADELAUNE,45.14292,5.71527,A,Échirolles
4,Marie Curie,SEM:GENMARIECUR,45.14523,5.71704,A,Échirolles
5,La Rampe - Centre-Ville,SEM:GENRAMPE,45.14948,5.71818,A,Échirolles
6,Echirolles Gare,SEM:GENECHIGARE,45.15302,5.71848,A,Échirolles
7,Essarts - La Butte,SEM:GENESSARTS,45.15588,5.71909,A,Échirolles
8,Surieux,SEM:GENSURIEUX,45.15846,5.72192,A,Échirolles
9,Les Granges,SEM:GENGRANGES,45.15696,5.72781,A,Échirolles
10,Polesud - Alpexpo,SEM:GENPOLESUD,45.15715,5.73384,A,Grenoble
11,Grand'place,SEM:GENGRDPLACE,45.15893,5.73179,A,Grenoble
12,Arlequin,SEM:GENARLEQUIN,45.16359,5.73047,A,Grenoble
13,La Bruyère-Parc Jean Verlhac,SEM:GENBRUYERE,45.16635,5.73118,A,Grenoble
14,Malherbe,SEM:GENMALHERBE,45.16928,5.73229,A,Grenoble
15,MC2: Maison de la Culture,SEM:GENMAICULTU,45.17347,5.73206,A,Grenoble
16,Mounier,SEM:GENMOUNIER,45.179,5.73179,A,Grenoble
17,Albert 1er de Belgique,SEM:GENALB1BELG,45.18168,5.73167,A,Grenoble
18,Chavant,SEM:GENCHAVANT,45.18466,5.73177,A,Grenoble
19,Verdun - Préfecture,SEM:GENVERDUN,45.1883,5.73144,A,Grenoble
20,Hubert Dubedout - Maison du Tourisme,SEM:GENDUBEDOUT,45.1902,5.72822,A,Grenoble
21,Victor Hugo,SEM:GENVICTHUGO,45.18938,5.72499,A,Grenoble
22,Alsace-Lorraine,SEM:GENALSACELO,45.18911,5.7193,A,Grenoble
23,Gares,SEM:GENGARES,45.19078,5.71554,A,Grenoble
24,Saint-Bruno,SEM:GENSTBRUNO,45.18833,5.71351,A,Grenoble
25,Berriat-Le Magasin,SEM:GENBERRIAT,45.18878,5.70588,A,Grenoble
26,Les Fontainades - Le Vog,SEM:GENFONTAINA,45.18909,5.69844,A,Fontaine
27,Louis Maisonnat,SEM:GENMAISONNA,45.18912,5.69409,A,Fontaine
28,Fontaine Hôtel de Ville - La Source,SEM:GENFONTAHDV,45.19134,5.68727,A,Fontaine
29,Charles Michels,SEM:GENCHARLMIC,45.19385,5.68009,A,Fontaine
30,La Poya,SEM:GENLAPOYA,45.19709,5.67222,A,Fontaine
31,Plaine des Sports,SEM:GENPLAINEDS,45.18805,5.78421,B,Gières
32,Gières Gare - Universités,SEM:GENGIERGARE,45.18528,5.78458,B,Gières
33,Mayencin - Champ Roman,SEM:GENMAYENCIN,45.18491,5.77895,B,Gières
34,Condillac - Universités,SEM:GENCONDIUNI,45.18915,5.77445,B,Saint-Martin-d'Hères
35,Bibliothèques Universitaires,SEM:GENBIBLIUNI,45.19246,5.7709,B,Gières
36,Gabriel Fauré - MUSE,SEM:GENGABFAURE,45.19228,5.7643,B,Saint-Martin-d'Hères
37,Les Taillées - Universités,SEM:GENTAILLEES,45.19215,5.75784,B,Saint-Martin-d'Hères
38,Grand Sablon,SEM:GENGRDSABLO,45.19903,5.75,B,La Tronche
39,Michallon,SEM:GENMICHALLO,45.20028,5.74533,B,La Tronche
40,La Tronche Hôpital,SEM:GENTRONCHOP,45.20123,5.74184,B,La Tronche
41,Ile Verte,SEM:GENILEVERTE,45.19713,5.73662,B,Grenoble
42,Notre-Dame - Musée,SEM:GENNOTREDAM,45.19358,5.73214,B,Grenoble
43,Sainte-Claire - Les Halles,SEM:GENSTECLAIR,45.19146,5.73067,B,Grenoble
44,Hubert Dubedout - Maison du Tourisme,SEM:GENDUBEDOUT,45.1902,5.72822,B,Grenoble
45,Victor Hugo,SEM:GENVICTHUGO,45.18938,5.72499,B,Grenoble
46,Alsace-Lorraine,SEM:GENALSACELO,45.18911,5.7193,B,Grenoble
47,Gares,SEM:GENGARES,45.19078,5.71554,B,Grenoble
48,Saint-Bruno,SEM:GENSTBRUNO,45.18833,5.71351,B,Grenoble
49,Palais de Justice - Gare,SEM:GENPALJUSTI,45.19164,5.71086,B,Grenoble
50,Cité Internationale,SEM:GENCITEINTE,45.19508,5.7112,B,Grenoble
51,Marie-Louise Paris - CEA,SEM:GENCEACAMB,45.20216,5.70431,B,Grenoble
52,Oxford,SEM:GENPRESQUIL,45.20613,5.6994,B,Grenoble
53,Plaine des Sports,SEM:GENPLAINEDS,45.18805,5.78421,C,Gières
54,Gières Gare - Universités,SEM:GENGIERGARE,45.18528,5.78458,C,Gières
55,Mayencin - Champ Roman,SEM:GENMAYENCIN,45.18491,5.77895,C,Gières
56,Condillac - Universités,SEM:GENCONDIUNI,45.18915,5.77445,C,Saint-Martin-d'Hères
57,Bibliothèques Universitaires,SEM:GENBIBLIUNI,45.19246,5.7709,C,Gières
58,Gabriel Fauré - MUSE,SEM:GENGABFAURE,45.19228,5.7643,C,Saint-Martin-d'Hères
59,Hector Berlioz - Universités,SEM:GENHBERLUNI,45.19137,5.75866,C,Saint-Martin-d'Hères
60,Neyrpic - Belledonne,SEM:GENNEYRBELL,45.18669,5.75716,C,Saint-Martin-d'Hères
61,Péri - Brossolette,SEM:GENPERIBROS,45.18771,5.75142,C,Saint-Martin-d'Hères
62,Flandrin - Valmy,SEM:GENVALMY,45.18719,5.7448,C,Grenoble
63,Grenoble Hôtel de Ville,SEM:GENGREHOTEL,45.18746,5.73779,C,Grenoble
64,Chavant,SEM:GENCHAVANT,45.18466,5.73177,C,Grenoble
65,Gustave Rivet,SEM:GENGUSTRIVE,45.1817,5.72783,C,Grenoble
66,Foch - Ferrié,SEM:GENFOCHFERI,45.1808,5.72256,C,Grenoble
67,Vallier - Libération,SEM:GENVALLIBE,45.18013,5.71608,C,Grenoble
68,Vallier - Docteur Calmette,SEM:GENDRCALME,45.18013,5.71077,C,Grenoble
69,Vallier - Catane,SEM:GENVALLCATA,45.18002,5.70558,C,Grenoble
70,Seyssinet-Pariset Hôtel de Ville,SEM:GENSEYHDV,45.18032,5.69707,C,Seyssinet-Pariset
71,Fauconnière,SEM:GENFAUCONNI,45.17651,5.69427,C,Seyssinet-Pariset
72,Grand Pré,SEM:GENGRANDPRE,45.17178,5.69424,C,Seyssinet-Pariset
73,Mas des Iles,SEM:GENMASDESIL,45.16727,5.69424,C,Seyssins
74,Le Prisme,SEM:GENPRISME,45.16639,5.69055,C,Seyssins
75,Les Taillées - Universités,SEM:GENTAILLEES,45.19215,5.75784,D,Saint-Martin-d'Hères
76,Plaine des Sports,SEM:GENPLAINEDS,45.18805,5.78421,D,Gières
77,Gières Gare - Universités,SEM:GENGIERGARE,45.18528,5.78458,D,Gières
78,Mayencin - Champ Roman,SEM:GENMAYENCIN,45.18491,5.77895,D,Gières
79,Condillac - Universités,SEM:GENCONDIUNI,45.18915,5.77445,D,Saint-Martin-d'Hères
80,Bibliothèques Universitaires,SEM:GENBIBLIUNI,45.19246,5.7709,D,Gières
81,Gabriel Fauré - MUSE,SEM:GENGABFAURE,45.19228,5.7643,D,Saint-Martin-d'Hères
82,Hector Berlioz - Universités,SEM:GENHBERLUNI,45.19137,5.75866,D,Saint-Martin-d'Hères
83,Neyrpic - Belledonne,SEM:GENNEYRBELL,45.18669,5.75716,D,Saint-Martin-d'Hères
84,Maison Communale,SEM:GENMAISONCO,45.18412,5.75414,D,Saint-Martin-d'Hères
85,Edouard Vaillant,SEM:GENEDVAILLA,45.17902,5.75528,D,Saint-Martin-d'Hères
86,Parc Jo Blanchon,SEM:GENBLANCHON,45.17585,5.75684,D,Saint-Martin-d'Hères
87,Etienne Grappe,SEM:GENETIEGRAP,45.17213,5.75769,D,Saint-Martin-d'Hères
88,Louise Michel,SEM:GENLMICHEL,45.16976,5.71287,E,Grenoble
89,Alliés,SEM:GENALLIES,45.17398,5.71427,E,Grenoble
90,Vallier - Libération,SEM:GENVALLIBE,45.18013,5.71608,E,Grenoble
91,Plaine des Sports,SEM:GENPLAINEDS,45.18805,5.78421,E,Gières
92,Gières Gare - Universités,SEM:GENGIERGARE,45.18528,5.78458,E,Gières
93,Mayencin - Champ Roman,SEM:GENMAYENCIN,45.18491,5.77895,E,Gières
94,Condillac - Universités,SEM:GENCONDIUNI,45.18915,5.77445,E,Saint-Martin-d'Hères
95,Bibliothèques Universitaires,SEM:GENBIBLIUNI,45.19246,5.7709,E,Gières
96,Gabriel Fauré - MUSE,SEM:GENGABFAURE,45.19228,5.7643,E,Saint-Martin-d'Hères
97,Hector Berlioz - Universités,SEM:GENHBERLUNI,45.19137,5.75866,E,Saint-Martin-d'Hères
98,Neyrpic - Belledonne,SEM:GENNEYRBELL,45.18669,5.75716,E,Saint-Martin-d'Hères
99,Péri - Brossolette,SEM:GENPERIBROS,45.18771,5.75142,E,Saint-Martin-d'Hères
100,Flandrin - Valmy,SEM:GENVALMY,45.18719,5.7448,E,Grenoble
101,Grenoble Hôtel de Ville,SEM:GENGREHOTEL,45.18746,5.73779,E,Grenoble
102,Chavant,SEM:GENCHAVANT,45.18466,5.73177,E,Grenoble
103,Gustave Rivet,SEM:GENGUSTRIVE,45.1817,5.72783,E,Grenoble
104,Foch - Ferrié,SEM:GENFOCHFERI,45.1808,5.72256,E,Grenoble
105,Condorcet,SEM:GENCONDORCE,45.18553,5.71823,E,Grenoble
106,Alsace-Lorraine,SEM:GENALSACELO,45.18911,5.7193,E,Grenoble
107,Annie Fratellini-Esplanade,SEM:GENESPLANAD,45.19566,5.71679,E,Grenoble
108,Casamaures - Village,SEM:GENCASAVILL,45.19902,5.71747,E,Grenoble
109,Saint-Martin-le-Vinoux Hôtel de Ville,SEM:GENMAIRIESM,45.20826,5.70685,E,Saint-Martin-le-Vinoux
110,Horloge,SEM:GENHORLOGE,45.21363,5.69885,E,Saint-Martin-le-Vinoux
111,Néron,SEM:GENNERON,45.21782,5.69334,E,Saint-Martin-le-Vinoux
112,Fiancey - Prédieu,SEM:GENPREDIEU,45.22359,5.68827,E,Saint-Égrève
113,Muret,SEM:GENMURET,45.22618,5.68616,E,Saint-Égrève
114,Pont de Vence,SEM:GENPTVENCE,45.23009,5.6823,E,Saint-Égrève
115,La Pinéa - St Robert,SEM:GENPINEA,45.23565,5.67549,E,Saint-Égrève
116,Karben,SEM:GENKARBEN,45.24235,5.67093,E,Saint-Égrève
117,Rafour,SEM:GENRAFOUR,45.24868,5.66688,E,Fontanil-Cornillon
118,Palluel,SEM:GENFONTANIL,45.25507,5.66148,E,Fontanil-Cornillon
119,Maupertuis,SEM:GENMAUPERTU,45.21285,5.79719,C1,Meylan
120,Pré de l'Eau,SEM:GENPREDEAU,45.22384,5.81961,C1,Montbonnot-Saint-Martin
121,Pré Millet,SEM:GENPREMILL,45.22181,5.81305,C1,Montbonnot-Saint-Martin
122,INRIA,SEM:GENINRIA,45.21747,5.80738,C1,Montbonnot-Saint-Martin
123,Baudonniere,SEM:GENBEAUDONI,45.2145,5.80779,C1,Montbonnot-Saint-Martin
124,Busserolles,SEM:GENBUSSEROL,45.20884,5.79756,C1,Meylan
125,Norbert Ségard,SEM:GENNORBSEGA,45.20915,5.79489,C1,Meylan
126,Les Béalières,SEM:GENBEALIERE,45.21153,5.7907,C1,Meylan
127,Malacher,SEM:GENMALACHER,45.21122,5.78722,C1,Meylan
128,Granier,SEM:GENGRANIER,45.21027,5.78453,C1,Meylan
129,Meylan Mairie,SEM:GENMEYLMAIR,45.20928,5.7785,C1,Meylan
130,Piscine des Buclos,SEM:GENPISBUCLO,45.20888,5.77538,C1,Meylan
131,Le Brêt,SEM:GENLEBRET,45.2059,5.77174,C1,Meylan
132,La Revirée,SEM:GENREVIREE,45.20733,5.76796,C1,Meylan
133,Aiguinards-Hexagone,SEM:GENAIGUIHEX,45.20556,5.76449,C1,Meylan
134,Plaine Fleurie,SEM:GENPLAINEFL,45.20276,5.76139,C1,Meylan
135,Carronnerie - Ile d'Amour,SEM:GENCARONRIE,45.20116,5.7588,C1,La Tronche
136,Sablons,SEM:GENSABLONS,45.19647,5.75206,C1,La Tronche
137,Grenoble Hôtel de Ville,SEM:GENGREHOTEL,45.18746,5.73779,C1,Grenoble
138,Chavant,SEM:GENCHAVANT,45.18466,5.73177,C1,Grenoble
139,Docteur Martin,SEM:GENDRMARTIN,45.18731,5.72728,C1,Grenoble
140,Victor Hugo,SEM:GENVICTHUGO,45.18938,5.72499,C1,Grenoble
141,Docteur Mazet,SEM:GENDRMAZET,45.19128,5.72201,C1,Grenoble
142,Félix Viallet,SEM:GENFELIXVIA,45.19073,5.71847,C1,Grenoble
143,Gares,SEM:GENGARES,45.19078,5.71554,C1,Grenoble
144,Arago,SEM:GENARAGO,45.19709,5.71174,C1,Grenoble
145,Cité Jean Macé,SEM:GENCITEMACE,45.19996,5.7105,C1,Grenoble
146,Pont Rouge,SEM:GENPTROUGE,45.11832,5.69254,C2,Claix
147,Pont-de-Claix Mairie,SEM:GENPTCLXMAI,45.12288,5.6977,C2,Le Pont-de-Claix
148,Marcelline,SEM:GENMARCELLI,45.12553,5.69795,C2,Le Pont-de-Claix
149,Irène Joliot-Curie,SEM:GENIRENEJOL,45.12742,5.69856,C2,Le Pont-de-Claix
150,L'Amphi,SEM:GENLAMPHI,45.13035,5.69975,C2,Le Pont-de-Claix
151,Iles de Mars,SEM:GENILESMARS,45.13197,5.70026,C2,Le Pont-de-Claix
152,Clos Dominique,SEM:GENCLOSDOMI,45.13546,5.70127,C2,Le Pont-de-Claix
153,L'Etoile,SEM:GENLETOILE,45.13788,5.7033,C2,Le Pont-de-Claix
154,Ecureuil,SEM:GENECUREUIL,45.14261,5.70384,C2,Échirolles
155,Bayard,SEM:GENBAYARD,45.14591,5.70478,C2,Échirolles
156,Quinzaine,SEM:GENQUINZAIN,45.15149,5.70664,C2,Échirolles
157,Navis,SEM:GENNAVIS,45.15627,5.70842,C2,Échirolles
158,Marielle Franco - Rondeau,SEM:GENRONDEAU,45.16072,5.70965,C2,Grenoble
159,Stade Lesdiguières,SEM:GENSTADLESD,45.16429,5.71097,C2,Grenoble
160,Louise Michel,SEM:GENLMICHEL,45.16976,5.71287,C2,Grenoble
161,Victor Hugo,SEM:GENVICTHUGO,45.18938,5.72499,C3,Grenoble
162,Gambetta,SEM:GENGAMBETTA,45.18845,5.72317,C3,Grenoble
163,Championnet,SEM:GENCHAMPION,45.18554,5.72318,C3,Grenoble
164,Marceau - Jardin des Vallons,SEM:GENMARCEAU,45.18245,5.72217,C3,Grenoble
165,Foch - Ferrié,SEM:GENFOCHFERI,45.1808,5.72256,C3,Grenoble
166,Capuche,SEM:GENCAPUCHE,45.17614,5.72539,C3,Grenoble
167,Eugène Sue,SEM:GENEUGENESU,45.17284,5.72476,C3,Grenoble
168,Clos d'Or,SEM:GENCLOSDOR,45.16955,5.72321,C3,Grenoble
169,Vigny,SEM:GENVIGNY,45.16744,5.72338,C3,Grenoble
170,Village Olympique,SEM:GENVILLOLYM,45.16411,5.72404,C3,Grenoble
171,Christophe Turc,SEM:GENCHRISTUR,45.16137,5.72414,C3,Grenoble
172,Edmond Esmonin,SEM:GENEDMOESMO,45.15937,5.72662,C3,Grenoble
173,Grand'place,SEM:GENGRDPLACE,45.15893,5.73179,C3,Grenoble
174,Polesud - Alpexpo,SEM:GENPOLESUD,45.15715,5.73384,C3,Grenoble
175,Alpexpo,SEM:GENALPEXPO,45.15449,5.73379,C3,Eybens
176,François Quesnay,SEM:GENFRQUESNA,45.1479,5.73517,C3,Échirolles
177,Hôpital Sud,SEM:GENHOPITSUD,45.1469,5.73274,C3,Échirolles
178,Ecoles Hospitalières,SEM:GENECOLHOSP,45.14638,5.72973,C3,Échirolles
179,Le Château,SEM:GENCHATEAU,45.14732,5.72671,C3,Échirolles
180,Guy Mocquet,SEM:GENGUYMOCQU,45.14548,5.72585,C3,Échirolles
181,Paul Langevin,SEM:GENLANGEVIN,45.14346,5.72313,C3,Échirolles
182,Le Village,SEM:GENVILLAGE,45.14133,5.72057,C3,Échirolles
183,Centre du graphisme,SEM:GENGRAPH,45.14185,5.71816,C3,Échirolles
184,Le Verderet,SEM:GENVERDERET,45.14694,5.75428,C4,Eybens
185,Le Bourg,SEM:GENLEBOURG,45.14781,5.75116,C4,Eybens
186,Les Javaux,SEM:GENJAVAUX,45.15034,5.7499,C4,Eybens
187,Odyssée,SEM:GENODYSSEE,45.15273,5.74876,C4,Eybens
188,Val d'Eybens,SEM:GENVALEYBEN,45.15905,5.74558,C4,Eybens
189,Général de Gaulle,SEM:GENDEGAULLE,45.16163,5.74447,C4,Eybens
190,Maisons Neuves,SEM:GENMAISNEUV,45.16491,5.74252,C4,Eybens
191,Jean Racine,SEM:GENJRACINE,45.16682,5.74175,C4,Grenoble
192,Teisseire,SEM:GENTEISSEIR,45.17081,5.74016,C4,Grenoble
193,Paul Claudel,SEM:GENPCLAUDEL,45.17336,5.73851,C4,Grenoble
194,Ponsard,SEM:GENPONSARD,45.17597,5.7372,C4,Grenoble
195,Bajatière,SEM:GENBAJATIER,45.17813,5.73614,C4,Grenoble
196,Mallifaud,SEM:GENMALLIFAU,45.18033,5.73507,C4,Grenoble
197,Driant,SEM:GENDRIANT,45.18228,5.7341,C4,Grenoble
198,Chavant,SEM:GENCHAVANT,45.18466,5.73177,C4,Grenoble
199,Docteur Martin,SEM:GENDRMARTIN,45.18731,5.72728,C4,Grenoble
200,Victor Hugo,SEM:GENVICTHUGO,45.18938,5.72499,C4,Grenoble
201,Henri Dunant,SEM:GENHDUNANT,45.17441,5.7083,C5,Grenoble
202,Palais de Justice - Gare,SEM:GENPALJUSTI,45.19164,5.71086,C5,Grenoble
203,Esclangon,SEM:GENESCLANGO,45.19158,5.7065,C5,Grenoble
204,Berriat-Le Magasin,SEM:GENBERRIAT,45.18878,5.70588,C5,Grenoble
205,Cémoi,SEM:GENCEMOI,45.18495,5.70573,C5,Grenoble
206,Vallier - Catane,SEM:GENVALLCATA,45.18002,5.70558,C5,Grenoble
207,Rosa Parks,SEM:GENRHINDANU,45.17497,5.70522,C5,Grenoble
208,Docteur Schweitzer,SEM:GENDRSCHWEI,45.17245,5.70632,C5,Grenoble
209,Lys Rouge,SEM:GENLYSROUGE,45.17304,5.71057,C5,Grenoble
210,Alliés,SEM:GENALLIES,45.17398,5.71427,C5,Grenoble
211,Marché d'Intérêt National,SEM:GENMAINNATI,45.17354,5.71805,C5,Grenoble
212,Stalingrad-Alliés,SEM:GENSTALALLI,45.17172,5.72435,C5,Grenoble
213,Flaubert - Clos d'Or,SEM:GENFLAUCLOS,45.17049,5.72791,C5,Grenoble
214,Malherbe,SEM:GENMALHERBE,45.16928,5.73229,C5,Grenoble
215,Louis Jouvet,SEM:GENLOUISJOU,45.16999,5.73712,C5,Grenoble
216,Teisseire,SEM:GENTEISSEIR,45.17081,5.74016,C5,Grenoble
217,Paul Cocat,SEM:GENPAULCOCA,45.17226,5.74478,C5,Grenoble
218,André Argouges,SEM:GENARGOUGES,45.17537,5.74447,C5,Grenoble
219,Saint-Augustin,SEM:GENSTAUGUST,45.17827,5.74591,C5,Grenoble
220,Bon Pasteur,SEM:GENBONPASTE,45.17875,5.7509,C5,Grenoble
221,Edouard Vaillant,SEM:GENEDVAILLA,45.17902,5.75528,C5,Saint-Martin-d'Hères
222,Pierre Sémard,SEM:GENPIERSEMA,45.18128,5.75712,C5,Saint-Martin-d'Hères
223,Neyrpic - Belledonne,SEM:GENNEYRBELL,45.18669,5.75716,C5,Saint-Martin-d'Hères
224,Clinique Belledonne,SEM:GENCLINBELD,45.18598,5.76095,C5,Saint-Martin-d'Hères
225,Champ Roman,SEM:GENCHAMPROM,45.18438,5.76824,C5,Saint-Martin-d'Hères
226,Les Alpilles,SEM:GENPROMOSOC,45.18714,5.76958,C5,Saint-Martin-d'Hères
227,Bibliothèques Universitaires,SEM:GENBIBLIUNI,45.19246,5.7709,C5,Gières
228,Universités - Biologie,SEM:GENBIOLOGIE,45.19195,5.77474,C5,Gières
229,Henri Wallon,SEM:GENHENRIWAL,45.17563,5.76392,C6,Saint-Martin-d'Hères
230,Pablo Neruda,SEM:GENPABLONER,45.17395,5.76074,C6,Saint-Martin-d'Hères
231,Etienne Grappe,SEM:GENETIEGRAP,45.17213,5.75769,C6,Saint-Martin-d'Hères
232,8 mai 1945,SEM:GEN8MAI1945,45.17106,5.75682,C6,Saint-Martin-d'Hères
233,Zella Mehlis,SEM:GENZELLAMEL,45.16707,5.75354,C6,Saint-Martin-d'Hères
234,Chopin,SEM:GENCHOPIN,45.16605,5.75142,C6,Saint-Martin-d'Hères
235,Le Marais,SEM:GENLEMARAIS,45.16412,5.75044,C6,Saint-Martin-d'Hères
236,La Châtelière,SEM:GENCHATELIE,45.16217,5.74903,C6,Eybens
237,Général de Gaulle,SEM:GENDEGAULLE,45.16163,5.74447,C6,Eybens
238,Collège des Saules,SEM:GENCOLLSAUL,45.16143,5.74306,C6,Eybens
239,Raymond Chanas,SEM:GENRAYCHANA,45.15968,5.73822,C6,Grenoble
240,Grand'place,SEM:GENGRDPLACE,45.15893,5.73179,C6,Grenoble
241,Edmond Esmonin,SEM:GENEDMOESMO,45.15937,5.72662,C6,Grenoble
242,Maison des Anciens,SEM:GENMAISANCI,45.15975,5.72325,C6,Grenoble
243,Essarts - La Butte,SEM:GENESSARTS,45.15588,5.71909,C6,Échirolles
244,Seyssins Rondeau,SEM:GENSEYSROND,45.16035,5.69373,C6,Seyssins
245,Le Prisme,SEM:GENPRISME,45.16639,5.69055,C6,Seyssins
246,Tuilerie,SEM:GENTUILERIE,45.16906,5.69215,C6,Seyssins
247,Grand Pré - Centre Sud,SEM:GENCENTRESU,45.17084,5.69457,C6,Seyssins
248,La Plaine,SEM:GENLAPLAINE,45.1726,5.69689,C6,Seyssinet-Pariset
249,Beau Site,SEM:GENBEAUSITE,45.17591,5.69696,C6,Seyssinet-Pariset
250,L'Arche,SEM:GENCENTRSOC,45.17817,5.69702,C6,Seyssinet-Pariset
251,Seyssinet-Pariset Hôtel de Ville,SEM:GENSEYHDV,45.18032,5.69707,C6,Seyssinet-Pariset
252,Les Iles,SEM:GENLESILES,45.1841,5.69716,C6,Seyssinet-Pariset
253,Aristide Bergès,SEM:GENARBERGES,45.18551,5.69465,C6,Seyssinet-Pariset
254,Louis Maisonnat,SEM:GENMAISONNA,45.18912,5.69409,C6,Fontaine
255,Curie - Vercors,SEM:GENCURIVERC,45.19188,5.69505,C6,Fontaine
256,Rue Pasteur,SEM:GENRUEPASTE,45.19421,5.69473,C6,Fontaine
257,Charmettes,SEM:GENCHARMETT,45.1974,5.69355,C6,Fontaine
258,Saint-Eynard,SEM:GENSTEYNARD,45.20113,5.69021,C6,Fontaine
259,La Sure,SEM:GENLASURE,45.20279,5.68586,C6,Fontaine
260,Chamechaude,SEM:GENCHAMECHA,45.2051,5.68348,C6,Sassenage
261,Martyrs - Résistance,SEM:GENMARESIST,45.2081,5.69661,C6,Grenoble
262,Oxford,SEM:GENPRESQUIL,45.20613,5.6994,C6,Grenoble
263,Universités - IUT - UFRAPS,SEM:GENIUTUFRAP,45.19766,5.77588,C7,Gières
264,Epicéa,SEM:GENEPICEA,45.19496,5.77481,C7,Gières
265,Universités - Biologie,SEM:GENBIOLOGIE,45.19195,5.77474,C7,Gières
266,Bibliothèques Universitaires,SEM:GENBIBLIUNI,45.19246,5.7709,C7,Gières
267,Les Alpilles,SEM:GENPROMOSOC,45.18714,5.76958,C7,Saint-Martin-d'Hères
268,Champ Roman,SEM:GENCHAMPROM,45.18438,5.76824,C7,Saint-Martin-d'Hères
269,Coli,SEM:GENCOLI,45.18073,5.76596,C7,Saint-Martin-d'Hères
270,Rocheplane,SEM:GENROCHEPLA,45.1783,5.76236,C7,Saint-Martin-d'Hères
271,Henri Wallon,SEM:GENHENRIWAL,45.17563,5.76392,C7,Saint-Martin-d'Hères
272,Pablo Neruda,SEM:GENPABLONER,45.17395,5.76074,C7,Saint-Martin-d'Hères
273,Etienne Grappe,SEM:GENETIEGRAP,45.17213,5.75769,C7,Saint-Martin-d'Hères
274,Potié,SEM:GENPOTIE,45.17088,5.75859,C7,Saint-Martin-d'Hères
275,Croix du Pâtre,SEM:GENCXPATRE,45.16821,5.76174,C7,Saint-Martin-d'Hères
276,Saint-Martin-d'Hères Village,SEM:GENSMHVILLA,45.16512,5.76552,C7,Saint-Martin-d'Hères
277,Le Carina,SEM:GENCARINA,45.16238,5.76305,C7,Saint-Martin-d'Hères
278,Centre Socio-Culturel,SEM:GENCENSOCIO,45.15886,5.75948,C7,Poisat
279,Champ Fila,SEM:GENCHAMPFIL,45.15627,5.75505,C7,Eybens
280,Odyssée,SEM:GENODYSSEE,45.15273,5.74876,C7,Eybens
281,Les Ruires-Boétie,SEM:GENRUIRES,45.14932,5.74122,C7,Eybens
282,François Quesnay,SEM:GENFRQUESNA,45.1479,5.73517,C7,Échirolles
283,Hôpital Sud,SEM:GENHOPITSUD,45.1469,5.73274,C7,Échirolles
284,Ecoles Hospitalières,SEM:GENECOLHOSP,45.14638,5.72973,C7,Échirolles
285,Le Château,SEM:GENCHATEAU,45.14732,5.72671,C7,Échirolles
286,Antoine Polotti,SEM:GENPOLOTTI,45.1486,5.72251,C7,Échirolles
287,La Rampe - Centre-Ville,SEM:GENRAMPE,45.14948,5.71818,C7,Échirolles
288,Fernand Pelloutier,SEM:GENPELLOUTI,45.15084,5.71482,C7,Échirolles
289,Grugliasco,SEM:GENGRUGLIAS,45.15127,5.70946,C7,Échirolles
290,Quinzaine,SEM:GENQUINZAIN,45.15149,5.70664,C7,Échirolles
291,Bayard,SEM:GENBAYARD,45.14591,5.70478,C7,Échirolles
292,Colonel Manhès,SEM:GENCOLMANHE,45.14647,5.70177,C7,Échirolles
293,Musée Géo Charles,SEM:GENMUSGEOCH,45.14878,5.70172,C7,Échirolles
294,Drac,SEM:GENDRAC2,45.14895,5.69397,C7,Échirolles
295,Comboire,SEM:GENCOMBOIRE,45.14583,5.69081,C7,Échirolles
296,Abbé Grégoire,SEM:GENABBEGREG,45.18388,5.71174,12,Grenoble
297,Les Alloves,SEM:GENALLOVES,45.17204,5.76518,12,Saint-Martin-d'Hères
298,Glaïeuls,SEM:GENGLAIEULS,45.16964,5.76358,12,Saint-Martin-d'Hères
299,Croix du Pâtre,SEM:GENCXPATRE,45.16821,5.76174,12,Saint-Martin-d'Hères
300,Potié,SEM:GENPOTIE,45.17088,5.75859,12,Saint-Martin-d'Hères
301,Etienne Grappe,SEM:GENETIEGRAP,45.17213,5.75769,12,Saint-Martin-d'Hères
302,Edmond Rostand,SEM:GENEDROSTAN,45.17446,5.75432,12,Saint-Martin-d'Hères
303,Houille Blanche,SEM:GENHOUILLEB,45.17794,5.7517,12,Saint-Martin-d'Hères
304,Bon Pasteur,SEM:GENBONPASTE,45.17875,5.7509,12,Grenoble
305,Grand Châtelet,SEM:GENGDCHATEL,45.18194,5.74841,12,Saint-Martin-d'Hères
306,Jeanne d'Arc,SEM:GENJEANNARC,45.18177,5.74518,12,Grenoble
307,Madeleine,SEM:GENMADELEIN,45.18515,5.74324,12,Grenoble
308,Bir Hakeim,SEM:GENBIRHAKEI,45.18886,5.73639,12,Grenoble
309,Verdun - Préfecture,SEM:GENVERDUN,45.1883,5.73144,12,Grenoble
310,Docteur Martin,SEM:GENDRMARTIN,45.18731,5.72728,12,Grenoble
311,Championnet,SEM:GENCHAMPION,45.18554,5.72318,12,Grenoble
312,Condorcet,SEM:GENCONDORCE,45.18553,5.71823,12,Grenoble
313,Chorier - Condorcet,SEM:GENCHORCOND,45.18593,5.71744,12,Grenoble
314,Chorier - Saint-Bruno,SEM:GENSTBRUNNC,45.18592,5.71403,12,Grenoble
315,D'Alembert,SEM:GENALEMBERT,45.18422,5.71064,12,Grenoble
316,Groupe Hospitalier Mutualiste,SEM:GENCLINMUT,45.18126,5.71028,12,Grenoble
317,Vallier - Docteur Calmette,SEM:GENDRCALME,45.18013,5.71077,12,Grenoble
318,Champs-Elysées,SEM:GENCHAMPSEL,45.17794,5.71025,12,Grenoble
319,Salengro,SEM:GENSALENGRO,45.17566,5.70887,12,Grenoble
320,Henri Dunant,SEM:GENHDUNANT,45.17441,5.7083,12,Grenoble
321,Docteur Schweitzer,SEM:GENDRSCHWEI,45.17245,5.70632,12,Grenoble
322,Anatole France,SEM:GENANATFRAN,45.17186,5.70495,12,Grenoble
323,Cité Paul Mistral,SEM:GENCITEPMIS,45.16855,5.70479,12,Grenoble
324,Bachelard,SEM:GENBACHELAR,45.16681,5.70594,12,Grenoble
325,Stade Lesdiguières,SEM:GENSTADLESD,45.16429,5.71097,12,Grenoble
326,Verlaine,SEM:GENVERLAINE,45.16193,5.71613,12,Grenoble
327,Maison des Anciens,SEM:GENMAISANCI,45.15975,5.72325,12,Grenoble
328,Edmond Esmonin,SEM:GENEDMOESMO,45.15937,5.72662,12,Grenoble
329,Grand'place,SEM:GENGRDPLACE,45.15893,5.73179,12,Grenoble
330,Raymond Chanas,SEM:GENRAYCHANA,45.15968,5.73822,12,Grenoble
331,Les Géants,SEM:GENPLGEANTS,45.16115,5.73994,12,Grenoble
332,Les Saules,SEM:GENSAULES,45.16188,5.74176,12,Eybens
333,Maisons Neuves,SEM:GENMAISNEUV,45.16491,5.74252,12,Eybens
334,Cimetière Intercommunal,SEM:GENPREMOL,45.15752,5.76412,13,Poisat
335,Centre Socio-Culturel,SEM:GENCENSOCIO,45.15886,5.75948,13,Poisat
336,Robespierre,SEM:GENROBESPIE,45.15985,5.75718,13,Poisat
337,Bel Air,SEM:GENBELAIR,45.16106,5.75525,13,Eybens
338,Le Marais,SEM:GENLEMARAIS,45.16412,5.75044,13,Saint-Martin-d'Hères
339,Paul Eluard,SEM:GENPAULELUA,45.16512,5.74887,13,Saint-Martin-d'Hères
340,Pierre Loti,SEM:GENPIERRELO,45.16664,5.74646,13,Saint-Martin-d'Hères
341,Léon Jouhaux,SEM:GENLEONJOUH,45.169,5.74444,13,Grenoble
342,Paul Cocat,SEM:GENPAULCOCA,45.17226,5.74478,13,Grenoble
343,André Argouges,SEM:GENARGOUGES,45.17537,5.74447,13,Grenoble
344,Suzanne Noël - Les Bains,SEM:GENLESBAINS,45.17821,5.74264,13,Grenoble
345,Edison,SEM:GENEDISON,45.18183,5.74091,13,Grenoble
346,Clémenceau,SEM:GENCLEMENCE,45.18388,5.74107,13,Grenoble
347,Auguste Ravier,SEM:GENAUGURAVI,45.18399,5.73965,13,Grenoble
348,Driant,SEM:GENDRIANT,45.18228,5.7341,13,Grenoble
349,Chavant,SEM:GENCHAVANT,45.18466,5.73177,13,Grenoble
350,Docteur Martin,SEM:GENDRMARTIN,45.18731,5.72728,13,Grenoble
351,Verdun - Préfecture,SEM:GENVERDUN,45.1883,5.73144,13,Grenoble
352,Mutualité,SEM:GENMUTUALIT,45.19046,5.73663,13,Grenoble
353,Saint-Roch,SEM:GENSTROCH,45.19129,5.73851,13,Grenoble
354,Cimetière du Grand Sablon,SEM:GENCIMETIGS,45.19247,5.74534,13,La Tronche
355,Hôpital Michallon,SEM:GENHOPMICHA,45.19714,5.74758,13,La Tronche
356,La Tronche Hôpital,SEM:GENTRONCHOP,45.20123,5.74184,13,La Tronche
357,Commandant Nal,SEM:GENCOMMANAL,45.20324,5.74535,13,La Tronche
358,Musée Hébert,SEM:GENMUSHEBER,45.20564,5.74888,13,La Tronche
359,Centre Théologique,SEM:GENCENTHEOL,45.20617,5.75215,13,La Tronche
360,Le Cèdre,SEM:GENCEDRE,45.20783,5.75552,13,Corenc
361,Jules Flandrin,SEM:GENJFLANDRI,45.20854,5.75845,13,Meylan
362,Grésivaudan,SEM:GENGRESIVAU,45.20997,5.76177,13,Corenc
363,Place de la Louisiane,SEM:GENPLALOUIS,45.20876,5.76321,13,Meylan
364,Aiguinards-Hexagone,SEM:GENAIGUIHEX,45.20556,5.76449,13,Meylan
365,La Revirée,SEM:GENREVIREE,45.20733,5.76796,13,Meylan
366,Faculté de Pharmacie,SEM:GENFACPHARM,45.2115,5.77392,13,Meylan
367,Lycée du Grésivaudan - Bachais,SEM:GENLYCBACHA,45.21416,5.7791,13,Meylan
368,Lycée du Grésivaudan,SEM:GENLYCGRESI,45.2134,5.78085,13,Meylan
369,Verdun - Préfecture,SEM:GENVERDUN,45.1883,5.73144,14,Grenoble
370,Bir Hakeim,SEM:GENBIRHAKEI,45.18886,5.73639,14,Grenoble
371,Flandrin - Valmy,SEM:GENVALMY,45.18719,5.7448,14,Grenoble
372,Croix Rouge,SEM:GENCROIXROU,45.18558,5.7479,14,Saint-Martin-d'Hères
373,Gay,SEM:GENGAY,45.18479,5.75086,14,Saint-Martin-d'Hères
374,Maison Communale,SEM:GENMAISONCO,45.18412,5.75414,14,Saint-Martin-d'Hères
375,Cité Labeye,SEM:GENCITELABE,45.18234,5.7598,14,Saint-Martin-d'Hères
376,Portail Rouge,SEM:GENPORTAILR,45.1814,5.76347,14,Saint-Martin-d'Hères
377,Coli,SEM:GENCOLI,45.18073,5.76596,14,Saint-Martin-d'Hères
378,Elsa Triolet,SEM:GENELSATRIO,45.17958,5.77015,14,Saint-Martin-d'Hères
379,Galochère,SEM:GENGALOCHER,45.17878,5.77315,14,Saint-Martin-d'Hères
380,Anguisses,SEM:GENANGUISSE,45.17782,5.77786,14,Saint-Martin-d'Hères
381,Roseraie,SEM:GENROSERAIE,45.17901,5.78101,14,Gières
382,Edelweiss,SEM:GENEDELWEIS,45.18149,5.78755,14,Gières
383,Gières Gare - Universités,SEM:GENGIERGARE,45.18528,5.78458,14,Gières
384,Les Arnauds,SEM:GENARNAUDS,45.20683,5.84788,15,Domène
385,René Cassin,SEM:GENRENECASS,45.2045,5.84416,15,Domène
386,Chenevières,SEM:GENCHENEVIE,45.20673,5.82734,15,Domène
387,Les Vernes,SEM:GENVERNES,45.20713,5.83398,15,Domène
388,Le Prieuré,SEM:GENPRIEURE,45.20489,5.83576,15,Domène
389,Domène Mairie,SEM:GENDOMENEMA,45.20152,5.83821,15,Domène
390,Coubertin,SEM:GENCOUBERTI,45.20004,5.83528,15,Domène
391,L'Oratoire,SEM:GENORATOIRE,45.19819,5.83412,15,Domène
392,Les Mortes,SEM:GENMORTES,45.19635,5.82887,15,Domène
393,Les Rivets,SEM:GENRIVETS,45.19482,5.82455,15,Murianette
394,La Briot,SEM:GENBRIOT,45.19299,5.81948,15,Murianette
395,Le Bourg,SEM:GENBOURG,45.19187,5.81647,15,Murianette
396,La Perrière,SEM:GENPERRIERE,45.18935,5.81079,15,Gières
397,Le Japin,SEM:GENLEJAPIN,45.18746,5.80706,15,Gières
398,Champrondet,SEM:GENCHAMPRON,45.18578,5.80285,15,Gières
399,Pied de Gières,SEM:GENPIEDGIER,45.18388,5.79852,15,Gières
400,Place de la République,SEM:GENPLREPUBL,45.18209,5.79257,15,Gières
401,Edelweiss,SEM:GENEDELWEIS,45.18149,5.78755,15,Gières
402,Le Sonnant,SEM:GENSONNANT,45.18161,5.78271,15,Gières
403,Porte du Grésivaudan,SEM:GENPORTGRES,45.18253,5.77665,15,Saint-Martin-d'Hères
404,Champ Roman,SEM:GENCHAMPROM,45.18438,5.76824,15,Saint-Martin-d'Hères
405,Clinique Belledonne,SEM:GENCLINBELD,45.18598,5.76095,15,Saint-Martin-d'Hères
406,Neyrpic - Belledonne,SEM:GENNEYRBELL,45.18669,5.75716,15,Saint-Martin-d'Hères
407,Péri - Brossolette,SEM:GENPERIBROS,45.18771,5.75142,15,Saint-Martin-d'Hères
408,Flandrin - Valmy,SEM:GENVALMY,45.18719,5.7448,15,Grenoble
409,Bir Hakeim,SEM:GENBIRHAKEI,45.18886,5.73639,15,Grenoble
410,Verdun - Préfecture,SEM:GENVERDUN,45.1883,5.73144,15,Grenoble
411,Lycée du Grésivaudan,SEM:GENLYCGRESI,45.2134,5.78085,16,Meylan
412,Les Mûriers,SEM:GENMURIERS,45.21549,5.77954,16,Meylan
413,Haut-Meylan,SEM:GENHTMEYLAN,45.21798,5.77913,16,Meylan
414,La Foy,SEM:GENLAFOY,45.2171,5.77634,16,Meylan
415,Buclos,SEM:GENBUCLOS,45.21581,5.77226,16,Corenc
416,Les Oiseaux,SEM:GENOISEAUX,45.21506,5.76867,16,Corenc
417,Eygala,SEM:GENEYGALA,45.21385,5.76461,16,Corenc
418,Montfleury,SEM:GENMONTFLEU,45.21204,5.75709,16,Corenc
419,Corenc Mairie,SEM:GENCORENCMA,45.20974,5.75272,16,Corenc
420,Croix de Montfleury,SEM:GENCXMONTFL,45.20879,5.74934,16,Corenc
421,Grande Tronche,SEM:GENGDTRONCH,45.20704,5.74578,16,La Tronche
422,Jules Rey,SEM:GENJULESREY,45.20658,5.74278,16,La Tronche
423,Bastille,SEM:GENBASTILLE,45.20444,5.7376,16,La Tronche
424,Petite Tronche,SEM:GENPTTRONCH,45.20195,5.73416,16,La Tronche
425,Saint-Laurent,SEM:GENSTLAUREN,45.19802,5.73257,16,Grenoble
426,Xavier Jouvin,SEM:GENXAVJOUVI,45.1956,5.73009,16,Grenoble
427,Notre-Dame - Musée,SEM:GENNOTREDAM,45.19358,5.73214,16,Grenoble
428,Hôtel de Police,SEM:GENHOPOLICE,45.1941,5.73571,16,Grenoble
429,Saint-Roch,SEM:GENSTROCH,45.19129,5.73851,16,Grenoble
430,Mutualité,SEM:GENMUTUALIT,45.19046,5.73663,16,Grenoble
431,Verdun - Préfecture,SEM:GENVERDUN,45.1883,5.73144,16,Grenoble
432,Docteur Martin,SEM:GENDRMARTIN,45.18731,5.72728,16,Grenoble
433,Caserne de Bonne,SEM:GENCASBONNE,45.18506,5.72533,16,Grenoble
434,Gustave Rivet,SEM:GENGUSTRIVE,45.1817,5.72783,16,Grenoble
435,Rue des Déportés,SEM:GENDEPORTES,45.17829,5.72771,16,Grenoble
436,Capuche,SEM:GENCAPUCHE,45.17614,5.72539,16,Grenoble
437,Eugène Sue,SEM:GENEUGENESU,45.17284,5.72476,16,Grenoble
438,Clos d'Or,SEM:GENCLOSDOR,45.16955,5.72321,16,Grenoble
439,Massenet,SEM:GENMASSENET,45.16771,5.72108,16,Grenoble
440,Beauvert,SEM:GENBEAUVERT,45.16417,5.71792,16,Grenoble
441,Verlaine,SEM:GENVERLAINE,45.16193,5.71613,16,Grenoble
442,Les Essarts,SEM:GENLESESSAR,45.1593,5.71376,16,Grenoble
443,Monmousseau,SEM:GENMONMOUSS,45.15354,5.71188,16,Échirolles
444,Grugliasco,SEM:GENGRUGLIAS,45.15127,5.70946,16,Échirolles
445,Les Glières,SEM:GENGLIERES,45.14962,5.71167,16,Échirolles
446,Paul Héroult,SEM:GENPHEROULT,45.14728,5.71347,16,Échirolles
447,Marie Curie,SEM:GENMARIECUR,45.14523,5.71704,16,Échirolles
448,Auguste Delaune,SEM:GENADELAUNE,45.14292,5.71527,16,Échirolles
449,Auguste Ferrier,SEM:GENAUGUFERR,45.14483,5.70962,16,Échirolles
450,Bayard,SEM:GENBAYARD,45.14591,5.70478,16,Échirolles
451,Colonel Manhès,SEM:GENCOLMANHE,45.14647,5.70177,16,Échirolles
452,Danielle Casanova,SEM:GENCASANOVA,45.14448,5.70071,16,Échirolles
453,Vassieux,SEM:GENVASSIEUX,45.14303,5.70002,16,Échirolles
454,Gendarmerie,SEM:GENLALUIRE,45.14003,5.69852,16,Le Pont-de-Claix
455,Denis Papin,SEM:GENDENPAPIN,45.13832,5.71307,16,Échirolles
456,Collège Pablo Picasso,SEM:GENPABLOPIC,45.14464,5.69816,16,Échirolles
457,Garlettes,SEM:GENGARLETTE,45.14748,5.67773,19,Seyssins
458,Seyssins Village,SEM:GENSEYVILLA,45.15628,5.68128,19,Seyssins
459,Garlettes,SEM:GENCIMETIGA,45.14524,5.67678,19,Seyssins
460,Henri Rey,SEM:GENHENRIREY,45.1474,5.67773,19,Seyssins
461,Pré Nouvel,SEM:GENPRENOUVE,45.15141,5.68039,19,Seyssins
462,L'Argoud,SEM:GENARGOUD,45.15433,5.68029,19,Seyssins
463,Seyssins Village,SEM:GENSEYSVILL,45.15628,5.68128,19,Seyssinet-Pariset
464,Ancienne Gare,SEM:GENANCIGARE,45.15978,5.68178,19,Seyssins
465,Les Combes,SEM:GENLECOMB,45.16807,5.67875,19,Seyssinet-Pariset
466,Seyssinet Village,SEM:GENSNETVILA,45.17052,5.68074,19,Seyssinet-Pariset
467,Belvédère,SEM:GENBELVEDER,45.1765,5.68821,19,Seyssinet-Pariset
468,Murailles,SEM:GENLAMURAIL,45.17825,5.69178,19,Seyssinet-Pariset
469,Bouchayer - Hôtel de Ville,SEM:GENBOUCHDV,45.18077,5.69437,19,Seyssinet-Pariset
470,Aristide Bergès,SEM:GENARBERGES,45.18551,5.69465,19,Seyssinet-Pariset
471,Louis Maisonnat,SEM:GENMAISONNA,45.18912,5.69409,19,Fontaine
472,Curie - Vercors,SEM:GENCURIVERC,45.19188,5.69505,19,Fontaine
473,Rue Pasteur,SEM:GENRUEPASTE,45.19421,5.69473,19,Fontaine
474,Place du Marché Cachin,SEM:GENPLACMARC,45.19588,5.69065,19,Fontaine
475,Jules Guesde,SEM:GENJULESGUE,45.19791,5.68878,19,Fontaine
476,Les Écrins,SEM:GENECRINS,45.19753,5.68631,19,Fontaine
477,Marat,SEM:GENMARAT,45.19915,5.68284,19,Fontaine
478,Rue des Alpes,SEM:GENRUEALPES,45.19799,5.68087,19,Fontaine
479,Gérard Philipe,SEM:GENGERARPHI,45.19647,5.67704,19,Fontaine
480,La Poya,SEM:GENLAPOYA,45.19709,5.67222,19,Fontaine
481,Les Pies,SEM:GENLESPIES,45.19957,5.66989,19,Sassenage
482,Pré Fleury,SEM:GENPREFLEUR,45.20183,5.66763,19,Sassenage
483,Trefforine,SEM:GENTREFFORI,45.20446,5.66499,19,Sassenage
484,Place de la Libération,SEM:GENPLIBERAT,45.20682,5.66281,19,Sassenage
485,Le Gua,SEM:GENLEGUA,45.20969,5.66443,19,Sassenage
486,L'Ovalie,SEM:GENOVALIE,45.20967,5.66695,19,Sassenage
487,La Rive,SEM:GENVEUREYRI,45.26981,5.61825,20,Veurey-Voroize
488,Les Echalières,SEM:GENECHALIER,45.26824,5.61944,20,Veurey-Voroize
489,Perrières,SEM:GENPERIERES,45.26209,5.6247,20,Veurey-Voroize
490,Iles Cordées,SEM:GENILESCORD,45.25971,5.62608,20,Veurey-Voroize
491,La Cuche,SEM:GENLACUCHE,45.25606,5.62814,20,Veurey-Voroize
492,Le Ruisset,SEM:GENRUISSET,45.25007,5.63156,20,Noyarey
493,Bascule,SEM:GENNOYARBAS,45.24292,5.63217,20,Noyarey
494,Saint-Jean,SEM:GENNOYARSTJ,45.23891,5.63425,20,Noyarey
495,Chaulnes,SEM:GENCHAULNES,45.23655,5.63811,20,Noyarey
496,Praparis - Les Roses,SEM:GENPRAPAROS,45.23226,5.64503,20,Noyarey
497,Praparis Usine,SEM:GENPRAPARIS,45.22925,5.6497,20,Sassenage
498,Les Engenières,SEM:GENENGENIER,45.2196,5.66022,20,Sassenage
499,La Rollandière,SEM:GENROLLANDI,45.21501,5.66112,20,Sassenage
500,Château de Sassenage,SEM:GENCHATSASS,45.21224,5.66167,20,Sassenage
501,Place de la Libération,SEM:GENPLIBERAT,45.20682,5.66281,20,Sassenage
502,Trefforine,SEM:GENTREFFORI,45.20446,5.66499,20,Sassenage
503,Pré Fleury,SEM:GENPREFLEUR,45.20183,5.66763,20,Sassenage
504,Les Pies,SEM:GENLESPIES,45.19957,5.66989,20,Sassenage
505,La Poya,SEM:GENLAPOYA,45.19709,5.67222,20,Fontaine
506,Ancienne Mairie,SEM:GENANCIEMAI,45.19272,5.67806,20,Fontaine
507,Jean Prévost,SEM:GENJEANPREV,45.18955,5.68276,20,Fontaine
508,Karl Marx,SEM:GENKARLMARX,45.18652,5.68729,20,Fontaine
509,Bergès - Vercors,SEM:GENBERGVERC,45.18417,5.69071,20,Seyssinet-Pariset
510,Les Iles,SEM:GENLESILES,45.1841,5.69716,20,Seyssinet-Pariset
511,Seyssinet-Pariset Hôtel de Ville,SEM:GENSEYHDV,45.18032,5.69707,20,Seyssinet-Pariset
512,Garlettes,SEM:GENGARLETTE,45.14748,5.67773,21,Seyssins
513,Pont Rouge,SEM:GENPTROUGE,45.11832,5.69254,21,Claix
514,Pompidou,SEM:GENPOMPIDOU,45.11993,5.69255,21,Claix
515,La Chièze,SEM:GENCHIEZE,45.12118,5.68251,21,Claix
516,La Ronzy,SEM:GENRONZY,45.12083,5.67593,21,Claix
517,Claix Mairie,SEM:GENCLAIXMAI,45.12025,5.67247,21,Claix
518,Poste,SEM:GENPOSTE,45.1211,5.67214,21,Claix
519,Furonnières,SEM:GENFURONNIE,45.12596,5.67131,21,Claix
520,La Croix Rolland,SEM:GENCRXROLLA,45.1292,5.67128,21,Claix
521,Col de Comboire,SEM:GENCOLCOMBO,45.14004,5.6732,21,Claix
522,Garlettes,SEM:GENCIMETIGA,45.14524,5.67678,21,Seyssins
523,Henri Rey,SEM:GENHENRIREY,45.1474,5.67773,21,Seyssins
524,Pré Nouvel,SEM:GENPRENOUVE,45.15141,5.68039,21,Seyssins
525,Hameau des Chaumières,SEM:GENCHAUMIER,45.1547,5.68938,21,Seyssins
526,Le Bournet,SEM:GENBOURNET,45.15765,5.68975,21,Seyssins
527,La Baume,SEM:GENLABAUME,45.16003,5.68982,21,Seyssins
528,Marc Sangnier,SEM:GENMARCSANG,45.16486,5.68915,21,Seyssins
529,Le Prisme,SEM:GENPRISME,45.16639,5.69055,21,Seyssins
530,Oxford,SEM:GENPRESQUIL,45.20613,5.6994,22,Grenoble
531,Louis Gagnière,SEM:GENGAGNIERE,45.21485,5.68576,22,Saint-Martin-le-Vinoux
532,Cap des H',SEM:GENCAPDESH,45.21732,5.68127,22,Saint-Égrève
533,Les Glairaux,SEM:GENGLAIRAUX,45.21901,5.67949,22,Saint-Égrève
534,Belledonne,SEM:GENBELLEDON,45.22268,5.684,22,Saint-Égrève
535,Fiancey - Prédieu,SEM:GENPREDIEU,45.22359,5.68827,22,Saint-Égrève
536,Muret,SEM:GENMURET,45.22618,5.68616,22,Saint-Égrève
537,Moutonnées,SEM:GENMOUTONNE,45.22838,5.68422,22,Saint-Égrève
538,Pont de Vence,SEM:GENPTVENCE,45.23009,5.6823,22,Saint-Égrève
539,Visancourt,SEM:GENVISANCOU,45.23317,5.68606,22,Saint-Égrève
540,Cuvilleux,SEM:GENCUVILLEU,45.2349,5.68768,22,Saint-Égrève
541,La Monta,SEM:GENLAMONTA,45.23799,5.68861,22,Saint-Égrève
542,Eglise,SEM:GENEGLISESE,45.23999,5.68407,22,Saint-Égrève
543,Gavanière,SEM:GENGAVANIER,45.24122,5.68148,22,Saint-Égrève
544,Rocher d'Escalade,SEM:GENROCHERES,45.2432,5.67907,22,Saint-Égrève
545,Rochepleine,SEM:GENROCHEPLE,45.24459,5.67517,22,Saint-Égrève
546,Karben,SEM:GENKARBEN,45.24235,5.67093,22,Saint-Égrève
547,Cap 38,SEM:GENCAP38,45.24018,5.66619,22,Saint-Égrève
548,La Biolle - Gare,SEM:GENBIOLLE,45.23522,5.66953,22,Saint-Égrève
549,Saint Egrève Gare,SEM:GENSTEGVGAR,45.23531,5.67151,22,Saint-Égrève
550,Le Péage,SEM:GENPEAGEDEV,45.0577,5.77102,23,Vizille
551,Vizille Lycée,SEM:GENLTE,45.06872,5.76836,23,Vizille
552,Place du Château,SEM:GENCHAT,45.07572,5.77221,23,Vizille
553,Les Allas,SEM:GENLESALLAS,45.07547,5.7786,23,Vizille
554,Les Corniers,SEM:GENCORNIERS,45.08176,5.78758,23,Vizille
555,Le Pont du Mas,SEM:GENPONTMAS,45.08679,5.78887,23,Vizille
556,Les Travers,SEM:GENTRAVERS,45.09132,5.79162,23,Vaulnaveys-le-Bas
557,Chemin des Cottes,SEM:GENLEPLATRE,45.09398,5.79326,23,Vaulnaveys-le-Bas
558,Vaulnaveys-Le-Bas Le Village,SEM:GENVAULBAS,45.10549,5.80042,23,Vaulnaveys-le-Bas
559,Maison Blanche,SEM:GENMAISON,45.11181,5.80512,23,Vaulnaveys-le-Bas
560,Marchandises,SEM:GENMARCHAND,45.11483,5.80766,23,Vaulnaveys-le-Haut
561,Vaulnaveys-Le-Haut Le Village,SEM:GENVAULHAUT,45.11934,5.81099,23,Vaulnaveys-le-Haut
562,Ecole Jules Bruant,SEM:GENJBRUANT,45.12172,5.8144,23,Vaulnaveys-le-Haut
563,Les Guichards,SEM:GENGUICHARD,45.12655,5.8167,23,Vaulnaveys-le-Haut
564,Les Alberges,SEM:GENALBERGES,45.13148,5.81903,23,Vaulnaveys-le-Haut
565,La Tuilerie,SEM:GENLATUILE,45.13617,5.82423,23,Vaulnaveys-le-Haut
566,Route de Saint Martin,SEM:GENSTMARTIN,45.13926,5.82718,23,Saint-Martin-d'Uriage
567,Uriage Gare,SEM:GENURIAGE,45.14395,5.82915,23,Saint-Martin-d'Uriage
568,Croisement 6,SEM:GENCROISEM,45.15287,5.8254,23,Saint-Martin-d'Uriage
569,Les Peiffendes,SEM:GENPEIFFEND,45.15716,5.82241,23,Saint-Martin-d'Uriage
570,Le Maupas,SEM:GENMAUPA,45.15926,5.81904,23,Saint-Martin-d'Uriage
571,Le Chenil,SEM:GENLECHENIL,45.1631,5.8123,23,Venon
572,Les Terrats,SEM:GENTERRATS,45.16914,5.79285,23,Gières
573,La Combe,SEM:GENLACOMBE,45.17412,5.79001,23,Gières
574,Edelweiss,SEM:GENEDELWEIS,45.18149,5.78755,23,Gières
575,Gières Gare - Universités,SEM:GENGIERGARE,45.18528,5.78458,23,Gières
576,Vignate,SEM:GENVIGNATE,45.18923,5.77806,23,Gières
577,Universités - Biologie,SEM:GENBIOLOGIE,45.19195,5.77474,23,Gières
578,Bibliothèques Universitaires,SEM:GENBIBLIUNI,45.19246,5.7709,23,Gières
579,Les Saillants,SEM:GENSAILLANT,45.02463,5.6458,25,Le Gua
580,Le Pont de Genevrey,SEM:GENPONTGENE,45.02852,5.65171,25,Vif
581,L'Usine Nord,SEM:GENUSINENOR,45.03,5.65281,25,Vif
582,Le Rif,SEM:GENLERIF,45.0323,5.65546,25,Vif
583,La Grange,SEM:GENGRANGE,45.03933,5.66126,25,Vif
584,Le Chalet,SEM:GENCHALET,45.04333,5.6644,25,Vif
585,La Cime du Bourg,SEM:GENCIMEBOUR,45.04812,5.66739,25,Vif
586,La Valonne,SEM:GENLAVALONE,45.05031,5.67129,25,Vif
587,Le Masségu,SEM:GENMASSEGU,45.05194,5.67464,25,Vif
588,Rivalta,SEM:GENVIFGEND,45.05301,5.67655,25,Vif
589,Vif Mairie,SEM:GENVIFMAIRI,45.05584,5.66897,25,Vif
590,Uriol,SEM:GENURIOL,45.06063,5.66856,25,Vif
591,Les Garcins,SEM:GENGARCINS,45.06389,5.66986,25,Vif
592,Pélissière,SEM:GENPELISIER,45.07057,5.67506,25,Varces-Allières-et-Risset
593,République,SEM:GENVARCESRE,45.08635,5.68298,25,Varces-Allières-et-Risset
594,L'Oriel,SEM:GENORIEL,45.08937,5.68355,25,Varces-Allières-et-Risset
595,Rond-Point de l'Europe,SEM:GENRONDEURO,45.09312,5.68375,25,Varces-Allières-et-Risset
596,Saint-Ange,SEM:GENSTEANGE,45.09683,5.68367,25,Varces-Allières-et-Risset
597,Le Rochefort,SEM:GENROCHEFOR,45.10164,5.68534,25,Varces-Allières-et-Risset
598,Pré de l'Orme,SEM:GENPREORME,45.10964,5.6884,25,Varces-Allières-et-Risset
599,Carrière,SEM:GENCARRIERE,45.11472,5.69018,25,Claix
600,Pont Rouge,SEM:GENPTROUGE,45.11832,5.69254,25,Claix
601,Pont-de-Claix Mairie,SEM:GENPTCLXMAI,45.12288,5.6977,25,Le Pont-de-Claix
602,Iles de Mars,SEM:GENILESMARS,45.13197,5.70026,25,Le Pont-de-Claix
603,L'Etoile,SEM:GENLETOILE,45.13788,5.7033,25,Le Pont-de-Claix
604,Bayard,SEM:GENBAYARD,45.14591,5.70478,25,Échirolles
605,Quinzaine,SEM:GENQUINZAIN,45.15149,5.70664,25,Échirolles
606,Marielle Franco - Rondeau,SEM:GENRONDEAU,45.16072,5.70965,25,Grenoble
607,Stade Lesdiguières,SEM:GENSTADLESD,45.16429,5.71097,25,Grenoble
608,Louise Michel,SEM:GENLMICHEL,45.16976,5.71287,25,Grenoble
609,Alliés,SEM:GENALLIES,45.17398,5.71427,25,Grenoble
610,Vallier - Libération,SEM:GENVALLIBE,45.18013,5.71608,25,Grenoble
611,Foch - Ferrié,SEM:GENFOCHFERI,45.1808,5.72256,25,Grenoble
612,Colonel Dumont,SEM:GENCAB,45.1815,5.72195,25,Grenoble
613,Pompidou,SEM:GENPOMPIDOU,45.11993,5.69255,25,Claix
614,Les Saillants,SEM:GENSAILLANT,45.02463,5.6458,26,Le Gua
615,Le Pont de Genevrey,SEM:GENPONTGENE,45.02852,5.65171,26,Vif
616,L'Usine Nord,SEM:GENUSINENOR,45.03,5.65281,26,Vif
617,Le Rif,SEM:GENLERIF,45.0323,5.65546,26,Vif
618,La Grange,SEM:GENGRANGE,45.03933,5.66126,26,Vif
619,Le Chalet,SEM:GENCHALET,45.04333,5.6644,26,Vif
620,La Cime du Bourg,SEM:GENCIMEBOUR,45.04812,5.66739,26,Vif
621,La Valonne,SEM:GENLAVALONE,45.05031,5.67129,26,Vif
622,Le Masségu,SEM:GENMASSEGU,45.05194,5.67464,26,Vif
623,Rivalta,SEM:GENVIFGEND,45.05301,5.67655,26,Vif
624,Vif Mairie,SEM:GENVIFMAIRI,45.05584,5.66897,26,Vif
625,Uriol,SEM:GENURIOL,45.06063,5.66856,26,Vif
626,Les Garcins,SEM:GENGARCINS,45.06389,5.66986,26,Vif
627,Pélissière,SEM:GENPELISIER,45.07057,5.67506,26,Varces-Allières-et-Risset
628,République,SEM:GENVARCESRE,45.08635,5.68298,26,Varces-Allières-et-Risset
629,L'Oriel,SEM:GENORIEL,45.08937,5.68355,26,Varces-Allières-et-Risset
630,Rond-Point de l'Europe,SEM:GENRONDEURO,45.09312,5.68375,26,Varces-Allières-et-Risset
631,Saint-Ange,SEM:GENSTEANGE,45.09683,5.68367,26,Varces-Allières-et-Risset
632,Le Rochefort,SEM:GENROCHEFOR,45.10164,5.68534,26,Varces-Allières-et-Risset
633,Vallier - Catane,SEM:GENVALLCATA,45.18002,5.70558,26,Grenoble
634,Vallier - Libération,SEM:GENVALLIBE,45.18013,5.71608,26,Grenoble
635,Alsace-Lorraine,SEM:GENALSACELO,45.18911,5.7193,26,Grenoble
636,Gares,SEM:GENGARES,45.19078,5.71554,26,Grenoble
637,Gare Routière,SEM:GENGAROUTIE,45.19298,5.71406,26,Grenoble
638,Saint-Georges-de-Commiers Gare,SEM:GENSTGCOMMI,45.04363,5.70174,26,Saint-Georges-de-Commiers
639,Vif Gare,SEM:GENVIFGARE,45.04824,5.68573,26,Vif
640,Gares,SEM:GENGARES,45.19078,5.71554,40,Grenoble
641,Victor Hugo,SEM:GENVICTHUGO,45.18938,5.72499,40,Grenoble
642,Place Cymaise,SEM:GENPLACECYM,45.195,5.72917,40,Grenoble
643,Maurice Gignoux,SEM:GENGIGNOUX,45.19421,5.72525,40,Grenoble
644,Musée Dauphinois,SEM:GENMUSEEDAU,45.19497,5.72614,40,Grenoble
645,Veyret,SEM:GENVEYRET,45.19483,5.7248,40,Grenoble
646,Le Rabot,SEM:GENRABOT,45.19505,5.72342,40,Grenoble
647,La Garenne,SEM:GENGARENNE,45.22729,5.76583,41,Corenc
648,Rochasson,SEM:GENMOLLARD,45.22364,5.7678,41,Corenc
649,Providence,SEM:GENPROVIDEN,45.22111,5.76456,41,Corenc
650,Corenc Village,SEM:GENCORENCVI,45.21983,5.76229,41,Corenc
651,La Corne d'Or,SEM:GENCORNEDOR,45.21809,5.76046,41,Corenc
652,Monument,SEM:GENMONUMENT,45.217,5.7536,41,Corenc
653,Charles Pajon,SEM:GENPAJON,45.21369,5.75287,41,Corenc
654,Mairie-Condamine,SEM:GENMAIRIECO,45.21118,5.75092,41,Corenc
655,Corenc Mairie,SEM:GENCORENCMA,45.20974,5.75272,41,Corenc
656,Le Cèdre,SEM:GENCEDRE,45.20783,5.75552,41,Corenc
657,Les Léchères,SEM:GENLECHERES,45.20454,5.75928,41,Meylan
658,Plaine Fleurie,SEM:GENPLAINEFL,45.20276,5.76139,41,Meylan
659,La Carronnerie Basse,SEM:GENCARONBAS,45.20114,5.75855,41,La Tronche
660,Pascal,SEM:GENPASCAL,45.1995,5.75527,41,La Tronche
661,Doyen Gosse,SEM:GENDOYENGOS,45.20138,5.75303,41,La Tronche
662,Vercors,SEM:GENVERCORS,45.20065,5.75103,41,La Tronche
663,Grand Sablon,SEM:GENGRDSABLO,45.19903,5.75,41,La Tronche
664,Ancienne Mairie,SEM:GENANCMAIRI,45.21793,5.77933,42,Meylan
665,Bérivière,SEM:GENBERIVIER,45.21882,5.78312,42,Meylan
666,Saint-Mury,SEM:GENSTMURY,45.21947,5.78613,42,Meylan
667,Les Jaillières,SEM:GENJAILLIER,45.22103,5.79007,42,Meylan
668,Grand Sablon,SEM:GENGRDSABLO,45.19903,5.75,42,La Tronche
669,Vercors,SEM:GENVERCORS,45.20065,5.75103,42,La Tronche
670,Doyen Gosse,SEM:GENDOYENGOS,45.20138,5.75303,42,La Tronche
671,Pascal,SEM:GENPASCAL,45.1995,5.75527,42,La Tronche
672,La Carronnerie Basse,SEM:GENCARONBAS,45.20114,5.75855,42,La Tronche
673,Plaine Fleurie,SEM:GENPLAINEFL,45.20276,5.76139,42,Meylan
674,Les Léchères,SEM:GENLECHERES,45.20454,5.75928,42,Meylan
675,Champ Rochas,SEM:GENCHAMROC,45.20744,5.75903,42,Meylan
676,Place de la Louisiane,SEM:GENPLALOUIS,45.20876,5.76321,42,Meylan
677,Lionel Terray,SEM:GENTERRAY,45.20999,5.76693,42,Meylan
678,Revirée - Sayettes,SEM:GENREVIREES,45.21205,5.76638,42,Meylan
679,Chaumetière,SEM:GENCHAUMETI,45.21244,5.77061,42,Meylan
680,Saint-Jean Bosco,SEM:GENSTJBOSCO,45.21282,5.77305,42,Meylan
681,Lycée du Grésivaudan - Bachais,SEM:GENLYCBACHA,45.21416,5.7791,42,Meylan
682,Les Mûriers,SEM:GENMURIERS,45.21549,5.77954,42,Meylan
683,Haut-Meylan,SEM:GENHTMEYLAN,45.21798,5.77913,42,Meylan
684,Champlars,SEM:GENCHAMPLAR,45.22023,5.77982,42,Meylan
685,Croix des Rameaux,SEM:GENCXRAMEAU,45.22374,5.78177,42,Meylan
686,Croix de Cibeins,SEM:GENCXCIBENS,45.226,5.7842,42,Meylan
687,Gué du Boutet,SEM:GENGUEBOUTE,45.22869,5.78464,42,Meylan
688,Pré Catlan,SEM:GENPRECATLA,45.23002,5.78733,42,Meylan
689,Montlivet,SEM:GENMONTLIVE,45.22998,5.78981,42,Meylan
690,Saint-Victor,SEM:GENSTVICTOR,45.2286,5.78928,42,Meylan
691,La Treille,SEM:GENTREILLE,45.22639,5.79109,42,Meylan
692,La Détourbe,SEM:GENDETOURBE,45.22278,5.7927,42,Meylan
693,Les Saillants,SEM:GENSAILLANT,45.02463,5.6458,44,Le Gua
694,Le Gua Mairie,SEM:GENLEGUAMAI,45.02211,5.64457,44,Le Gua
695,Les Rossets,SEM:GENROSSETS,45.01657,5.64083,44,Le Gua
696,Saint-Barthélémy,SEM:GENSTBARTHE,44.99986,5.62946,44,Le Gua
697,La Charrière,SEM:GENLACHARRI,45.01277,5.61587,44,Le Gua
698,Les Faures,SEM:GENLESFAURE,45.01439,5.61354,44,Le Gua
699,Prélenfrey Eglise,SEM:GENPRELENFR,45.01693,5.6133,44,Le Gua
700,L'Arzelier,SEM:GENARZELIER,44.99692,5.60258,44,Le Gua
701,Col de l'Arzelier,SEM:GENCOLARZEL,44.99089,5.59541,44,Le Gua
702,La Pierre,SEM:GENLAPIERRE,44.98916,5.62198,44,Le Gua
703,Cassoulet,SEM:GENCASSOULE,44.98229,5.62309,44,Miribel-Lanchâtre
704,Bayanne,SEM:GENBAYANNE,44.97996,5.62235,44,Miribel-Lanchâtre
705,Miribel,SEM:GENMIRIBEL,44.97466,5.621,44,Miribel-Lanchâtre
706,Le Vernay,SEM:GENLEVERNAY,44.97015,5.60875,44,Miribel-Lanchâtre
707,La Giraudière,SEM:GENGIRAUDIE,45.09503,5.67982,45,Varces-Allières-et-Risset
708,La Valonne,SEM:GENLAVALONE,45.05031,5.67129,45,Vif
709,Le Masségu,SEM:GENMASSEGU,45.05194,5.67464,45,Vif
710,Rivalta,SEM:GENVIFGEND,45.05301,5.67655,45,Vif
711,Z.A. des Speyres,SEM:GENZASPEYRE,45.0569,5.68184,45,Vif
712,Allée des Granges,SEM:GENALEGRANG,45.05795,5.68472,45,Vif
713,Mas Garni,SEM:GENMASGARNI,45.06078,5.68819,45,Vif
714,Le Petit Brion,SEM:GENPETIBRIO,45.06225,5.69018,45,Vif
715,Jacobins,SEM:GENJACOBINS,45.06461,5.69128,45,Vif
716,La Plaine,SEM:GENPLAINE,45.06686,5.69213,45,Vif
717,Ecole Reymure,SEM:GENECOLEREY,45.06908,5.69334,45,Vif
718,Rue de la Sacristie,SEM:GENSACRISTI,45.07081,5.69538,45,Vif
719,Le Refuge,SEM:GENLEREFUGE,45.07462,5.69959,45,Vif
720,Le Gros Chêne,SEM:GENGROSCHEN,45.07832,5.7021,45,Varces-Allières-et-Risset
721,Malissolles,SEM:GENMALISSOL,45.08396,5.7047,45,Varces-Allières-et-Risset
722,Fontagneux,SEM:GENFONTAGNE,45.08728,5.70786,45,Varces-Allières-et-Risset
723,Rozatière,SEM:GENROZATIER,45.08706,5.70241,45,Varces-Allières-et-Risset
724,Balzac,SEM:GENBALZAZ,45.08728,5.69421,45,Varces-Allières-et-Risset
725,Berliognière,SEM:GENBERLIOGN,45.08998,5.69249,45,Varces-Allières-et-Risset
726,Notre-Dame de Lachal,SEM:GENNODAMLAC,45.08736,5.69011,45,Varces-Allières-et-Risset
727,Pont de la Gresse,SEM:GENLAGRESSE,45.08683,5.68871,45,Varces-Allières-et-Risset
728,Stendhal,SEM:GENSTEND,45.0871,5.68586,45,Varces-Allières-et-Risset
729,L'Oriel,SEM:GENORIEL,45.08937,5.68355,45,Varces-Allières-et-Risset
730,Rond-Point de l'Europe,SEM:GENRONDEURO,45.09312,5.68375,45,Varces-Allières-et-Risset
731,Saint-Ange,SEM:GENSTEANGE,45.09683,5.68367,45,Varces-Allières-et-Risset
732,Pré du Sage,SEM:GENPRESAGE,45.10448,5.68324,45,Varces-Allières-et-Risset
733,Résidence Val d'Allières,SEM:GENRESIVAL,45.10657,5.68032,45,Varces-Allières-et-Risset
734,Les Lilas,SEM:GENLILAS,45.10788,5.67659,45,Varces-Allières-et-Risset
735,Pavillon,SEM:GENPAVILLON,45.1084,5.67425,45,Varces-Allières-et-Risset
736,Parc de la Chatelière,SEM:GENPARCHATE,45.10653,5.67261,45,Varces-Allières-et-Risset
737,Lavanchon,SEM:GENLAVANCHO,45.10444,5.67348,45,Varces-Allières-et-Risset
738,Nivolon,SEM:GENNIVOLON,45.10173,5.67246,45,Varces-Allières-et-Risset
739,Collège Jules Verne,SEM:GENCITESCOL,45.09546,5.67214,45,Varces-Allières-et-Risset
740,Saint-Paul-de-Varces Place,SEM:GENSPAULMAI,45.07167,5.6426,46,Saint-Paul-de-Varces
741,La Croix,SEM:GENCROIX,45.07055,5.64494,46,Saint-Paul-de-Varces
742,La Garde,SEM:GENGARDE,45.07049,5.65062,46,Saint-Paul-de-Varces
743,La Bascule,SEM:GENBASCULE,45.07181,5.65496,46,Saint-Paul-de-Varces
744,Le Poulat,SEM:GENPOULAT,45.07444,5.66002,46,Saint-Paul-de-Varces
745,Le Meinget,SEM:GENMEINGET,45.07973,5.66297,46,Saint-Paul-de-Varces
746,Chambord,SEM:GENCHAMBORD,45.08519,5.66714,46,Varces-Allières-et-Risset
747,La Pommeraie,SEM:GENPOMMERAI,45.08765,5.67206,46,Varces-Allières-et-Risset
748,Les Platanes,SEM:GENPLATANES,45.08933,5.6777,46,Varces-Allières-et-Risset
749,L'Oriel,SEM:GENORIEL,45.08937,5.68355,46,Varces-Allières-et-Risset
750,Rond-Point de l'Europe,SEM:GENRONDEURO,45.09312,5.68375,46,Varces-Allières-et-Risset
751,La Giraudière,SEM:GENGIRAUDIE,45.09503,5.67982,46,Varces-Allières-et-Risset
752,Collège Jules Verne,SEM:GENCITESCOL,45.09546,5.67214,46,Varces-Allières-et-Risset
753,Val d'Allières,SEM:GENVALALLIE,45.1069,5.66532,47,Claix
754,La Chanteraie,SEM:GENCHANTERA,45.11012,5.66548,47,Claix
755,Bellevue,SEM:GENBELLEVUE,45.11196,5.66548,47,Claix
756,Les Taillis,SEM:GENTAILLIS,45.11315,5.66577,47,Claix
757,Les Pampres,SEM:GENPAMPRES,45.11536,5.66589,47,Claix
758,Les Roses,SEM:GENROSES,45.11791,5.66739,47,Claix
759,Boulodrome-Ecole,SEM:GENBOULODRO,45.11962,5.66899,47,Claix
760,Claix Mairie,SEM:GENCLAIXMAI,45.12025,5.67247,47,Claix
761,La Ronzy,SEM:GENRONZY,45.12083,5.67593,47,Claix
762,La Chièze,SEM:GENCHIEZE,45.12118,5.68251,47,Claix
763,Pompidou,SEM:GENPOMPIDOU,45.11993,5.69255,47,Claix
764,Pont Rouge,SEM:GENPTROUGE,45.11832,5.69254,47,Claix
765,Charrières,SEM:GENCHARRIER,45.11599,5.68888,47,Claix
766,Saint-Michel,SEM:GENSAINTMIC,45.11203,5.68452,47,Claix
767,Les Bauches,SEM:GENBAUCHES,45.11083,5.67865,47,Claix
768,Pavillon,SEM:GENPAVILLON,45.1084,5.67425,47,Varces-Allières-et-Risset
769,Risset,SEM:GENRISSET,45.10724,5.67309,47,Varces-Allières-et-Risset
770,Cossey,SEM:GENCOSSEY,45.13895,5.67006,48,Claix
771,Chemin de l'Abbé,SEM:GENCHEABBE,45.13521,5.66842,48,Claix
772,Malhivert,SEM:GENMALHIVER,45.13254,5.66688,48,Claix
773,La Croix Rolland,SEM:GENCRXROLLA,45.1292,5.67128,48,Claix
774,Beau Dunois,SEM:GENBEAU,45.12535,5.67234,48,Claix
775,Les Chaumes,SEM:GENCHAUMES,45.1266,5.67411,48,Claix
776,Vert Sapin,SEM:GENVERT,45.12558,5.67844,48,Claix
777,Les Pérouses,SEM:GENPEROUSES,45.12456,5.67937,48,Claix
778,Moucherotte,SEM:GENMOUCHERO,45.12579,5.68096,48,Claix
779,Les Cimentiers,SEM:GENCIMENTIE,45.13047,5.68357,48,Claix
780,Le Coteau,SEM:GENCOTEAU,45.12669,5.6867,48,Claix
781,La Balmette,SEM:GENBALMETTE,45.12521,5.68811,48,Claix
782,Mémorial,SEM:GENDRAC,45.12265,5.69102,48,Claix
783,Fond Ratel,SEM:GENFONDRATE,45.12215,5.68935,48,Claix
784,Pompidou,SEM:GENPOMPIDOU,45.11993,5.69255,48,Claix
785,Pont Rouge,SEM:GENPTROUGE,45.11832,5.69254,48,Claix
786,Ancienne Gare,SEM:GENANCIGARE,45.15978,5.68178,49,Seyssins
787,Seyssins Village,SEM:GENSEYSVILL,45.15628,5.68128,49,Seyssinet-Pariset
788,Cimetière,SEM:GENCIMESEYP,45.16967,5.68346,49,Seyssinet-Pariset
789,Percevalière,SEM:GENPERCEVAL,45.17016,5.68682,49,Seyssinet-Pariset
790,Tuilerie,SEM:GENTUILERIE,45.16906,5.69215,49,Seyssins
791,Le Prisme,SEM:GENPRISME,45.16639,5.69055,49,Seyssins
792,Parc François Mitterrand,SEM:GENPFMITTER,45.16287,5.6853,49,Seyssins
793,L'Agneau,SEM:GENLAGNEAU,45.1613,5.68296,49,Seyssins
794,Beauvoir,SEM:GENBEAUVOIR,45.15899,5.68325,49,Seyssins
795,Seyssins Village,SEM:GENSEYVILLA,45.15628,5.68128,49,Seyssins
796,Le Priou,SEM:GENLEPRIOU,45.15698,5.6788,49,Seyssins
797,Le Parlement,SEM:GENLEPARL,45.15864,5.67447,49,Seyssins
798,Rue de la Lune,SEM:GENLALUNE,45.15551,5.67222,49,Seyssins
799,Les Côtes,SEM:GENLESCOTES,45.15689,5.6708,49,Seyssins
800,Clinique du Dauphiné,SEM:GENLECELLIE,45.16149,5.67354,49,Seyssins
801,Clinique - Portail,SEM:GENCLINDAU,45.16201,5.67406,49,Seyssins
802,Pariset,SEM:GENPARISE,45.17478,5.65879,49,Seyssinet-Pariset
803,Collège Fleming,SEM:GENCOLFLE,45.20302,5.66953,50,Sassenage
804,La Poya,SEM:GENLAPOYA,45.19709,5.67222,50,Fontaine
805,Les Pies,SEM:GENLESPIES,45.19957,5.66989,50,Sassenage
806,Pré Fleury,SEM:GENPREFLEUR,45.20183,5.66763,50,Sassenage
807,Trefforine,SEM:GENTREFFORI,45.20446,5.66499,50,Sassenage
808,Place de la Libération,SEM:GENPLIBERAT,45.20682,5.66281,50,Sassenage
809,Château de Sassenage,SEM:GENCHATSASS,45.21224,5.66167,50,Sassenage
810,Blanc Fontaine,SEM:GENBLANCFON,45.21064,5.65625,50,Sassenage
811,Les Chênes,SEM:GENCHENES,45.21809,5.65343,50,Sassenage
812,Les Parcs,SEM:GENPARCS,45.21658,5.652,50,Sassenage
813,Rivoire de la Dame,SEM:GENRIVOIRE,45.21493,5.65169,50,Sassenage
814,Mollard Pichon,SEM:GENMOLLARDP,45.21361,5.65249,50,Sassenage
815,Château de Beaurevoir,SEM:GENCHATBEAU,45.21234,5.65202,50,Sassenage
816,Vieux donjon,SEM:GENVIEUXDON,45.21138,5.64977,50,Sassenage
817,Beaurevoir,SEM:GENBEAUREVO,45.21009,5.64861,50,Sassenage
818,Les Côtes,SEM:GENCOTESASS,45.21006,5.64749,50,Sassenage
819,La Dent du Loup,SEM:GENDENT,45.21285,5.64587,50,Sassenage
820,Saint Egrève Gare,SEM:GENSTEGVGAR,45.23531,5.67151,51,Saint-Égrève
821,Les Bonnais,SEM:GENBONNAIS,45.24058,5.67257,51,Saint-Égrève
822,Karben,SEM:GENKARBEN,45.24235,5.67093,51,Saint-Égrève
823,Cap 38,SEM:GENCAP38,45.24018,5.66619,51,Saint-Égrève
824,Praparis - Les Roses,SEM:GENPRAPAROS,45.23226,5.64503,51,Noyarey
825,Chaulnes,SEM:GENCHAULNES,45.23655,5.63811,51,Noyarey
826,Saint-Jean,SEM:GENNOYARSTJ,45.23891,5.63425,51,Noyarey
827,Bascule,SEM:GENNOYARBAS,45.24292,5.63217,51,Noyarey
828,Le Ruisset,SEM:GENRUISSET,45.25007,5.63156,51,Noyarey
829,La Cuche,SEM:GENLACUCHE,45.25606,5.62814,51,Veurey-Voroize
830,Iles Cordées,SEM:GENILESCORD,45.25971,5.62608,51,Veurey-Voroize
831,Perrières,SEM:GENPERIERES,45.26209,5.6247,51,Veurey-Voroize
832,Les Echalières,SEM:GENECHALIER,45.26824,5.61944,51,Veurey-Voroize
833,La Rive,SEM:GENVEUREYRI,45.26981,5.61825,51,Veurey-Voroize
834,Veurey Eglise,SEM:GENVEUREYEG,45.27225,5.61564,51,Veurey-Voroize
835,Veurey Mairie,SEM:GENVEUREYMA,45.27292,5.61302,51,Veurey-Voroize
836,Le Béryl,SEM:GENBERYL,45.2748,5.61283,51,Veurey-Voroize
837,Petit Châtelard,SEM:GENPTCHATEL,45.27608,5.61213,51,Veurey-Voroize
838,Les Marronniers,SEM:GENMARRONNI,45.27636,5.61105,51,Veurey-Voroize
839,Chemin du Parc,SEM:GENCHATEAUX,45.27449,5.60613,51,Veurey-Voroize
840,Châtelard,SEM:GENCHATELAR,45.27353,5.60481,51,Veurey-Voroize
841,Oxford,SEM:GENPRESQUIL,45.20613,5.6994,54,Grenoble
842,Martyrs - Résistance,SEM:GENMARESIST,45.2081,5.69661,54,Grenoble
843,Chamechaude,SEM:GENCHAMECHA,45.2051,5.68348,54,Sassenage
844,Maladière,SEM:GENMALADIER,45.20773,5.68048,54,Sassenage
845,François Blumet,SEM:GENFRBLUMET,45.20966,5.677,54,Sassenage
846,Complexe Sportif,SEM:GENCOMPLEXE,45.21142,5.67272,54,Sassenage
847,L'Ovalie,SEM:GENOVALIE,45.20967,5.66695,54,Sassenage
848,Le Gua,SEM:GENLEGUA,45.20969,5.66443,54,Sassenage
849,Château de Sassenage,SEM:GENCHATSASS,45.21224,5.66167,54,Sassenage
850,La Rollandière,SEM:GENROLLANDI,45.21501,5.66112,54,Sassenage
851,Les Engenières,SEM:GENENGENIER,45.2196,5.66022,54,Sassenage
852,Praparis Usine,SEM:GENPRAPARIS,45.22925,5.6497,54,Sassenage
853,Cap 38,SEM:GENCAP38,45.24018,5.66619,54,Saint-Égrève
854,Karben,SEM:GENKARBEN,45.24235,5.67093,54,Saint-Égrève
855,Les Bonnais,SEM:GENBONNAIS,45.24058,5.67257,54,Saint-Égrève
856,Saint Egrève Gare,SEM:GENSTEGVGAR,45.23531,5.67151,54,Saint-Égrève
857,Vence EcoParc,SEM:GENVENCEECO,45.22773,5.66846,54,Saint-Égrève
858,Pont de Vence,SEM:GENPTVENCE,45.23009,5.6823,54,Saint-Égrève
859,Col de Clémencières,SEM:GENCOLCLEME,45.23437,5.72578,55,Saint-Martin-le-Vinoux
860,Ripaillère,SEM:GENRIPAILLE,45.22682,5.72078,55,Saint-Martin-le-Vinoux
861,Gatinet,SEM:GENLEGATINE,45.22453,5.71878,55,Saint-Martin-le-Vinoux
862,La Buisseratière,SEM:GENBUIS,45.22308,5.71778,55,Saint-Martin-le-Vinoux
863,La Rivoire,SEM:GENLARIVOIR,45.22001,5.71507,55,Saint-Martin-le-Vinoux
864,La Banchardière,SEM:GENBANCHARD,45.21726,5.71279,55,Saint-Martin-le-Vinoux
865,Narbonne,SEM:GENNARBONNE,45.21398,5.71026,55,Saint-Martin-le-Vinoux
866,L'Hermitage,SEM:GENLHERMITA,45.21501,5.70418,55,Saint-Martin-le-Vinoux
867,Canet,SEM:GENCHEMI,45.21055,5.70612,55,Saint-Martin-le-Vinoux
868,Clos Gérard Gruel,SEM:GENCLOSGRUE,45.20968,5.71052,55,Saint-Martin-le-Vinoux
869,Clos Saint-Martin,SEM:GENCLOSSTMA,45.20503,5.71402,55,Saint-Martin-le-Vinoux
870,16 Août 1944,SEM:GENGUERIMAN,45.20414,5.71545,55,Saint-Martin-le-Vinoux
871,Résistance,SEM:GEN16AOUT44,45.20341,5.71433,55,Saint-Martin-le-Vinoux
872,Conrad Kilian,SEM:GENCONRADKI,45.20592,5.70944,55,Saint-Martin-le-Vinoux
873,Saint-Martin-le-Vinoux Hôtel de Ville,SEM:GENMAIRIESM,45.20826,5.70685,55,Saint-Martin-le-Vinoux
874,Collège Chartreuse,SEM:GENCOLCHART,45.21784,5.69096,55,Saint-Martin-le-Vinoux
875,Collège Chartreuse,SEM:GENCOLCHART,45.21784,5.69096,56,Saint-Martin-le-Vinoux
876,Saint-Martin-le-Vinoux Hôtel de Ville,SEM:GENMAIRIESM,45.20826,5.70685,56,Saint-Martin-le-Vinoux
877,Conrad Kilian,SEM:GENCONRADKI,45.20592,5.70944,56,Saint-Martin-le-Vinoux
878,Casamaures - Village,SEM:GENCASAVILL,45.19902,5.71747,56,Grenoble
879,Résistance,SEM:GEN16AOUT44,45.20341,5.71433,56,Saint-Martin-le-Vinoux
880,16 Août 1944,SEM:GENGUERIMAN,45.20414,5.71545,56,Saint-Martin-le-Vinoux
881,Place du Village,SEM:GENSMVINOUX,45.20387,5.71634,56,Saint-Martin-le-Vinoux
882,Les Fauvettes,SEM:GENLESFAUVE,45.20589,5.71784,56,Saint-Martin-le-Vinoux
883,Le Reposoir,SEM:GENREPOSOIR,45.20945,5.71644,56,Saint-Martin-le-Vinoux
884,Les Combes,SEM:GENLESCOMBE,45.20964,5.718,56,Saint-Martin-le-Vinoux
885,Hôtel Bellevue,SEM:GENHOTELBEL,45.21153,5.71775,56,Saint-Martin-le-Vinoux
886,La Gomma,SEM:GENLAGOMMA,45.21513,5.71914,56,Saint-Martin-le-Vinoux
887,Mas Caché,SEM:GENLEMASGAC,45.2177,5.72187,56,Saint-Martin-le-Vinoux
888,Lachal,SEM:GENLACHAL,45.22242,5.72475,56,Saint-Martin-le-Vinoux
889,Levetière,SEM:GENLEVETIER,45.22629,5.72548,56,Saint-Martin-le-Vinoux
890,Col de Clémencières,SEM:GENCOLCLEME,45.23437,5.72578,56,Saint-Martin-le-Vinoux
891,Roudier,SEM:GENROUDIER,45.24812,5.73164,56,Quaix-en-Chartreuse
892,Sous La Frette,SEM:GENSOUSFRET,45.25036,5.73532,56,Quaix-en-Chartreuse
893,Bas de Mont-Quaix,SEM:GENBASMONT,45.25288,5.74174,56,Quaix-en-Chartreuse
894,Mont-Quaix,SEM:GENMONTQUAI,45.25575,5.74284,56,Quaix-en-Chartreuse
895,Fontvieille,SEM:GENFONVIEIL,45.2592,5.7449,56,Quaix-en-Chartreuse
896,La Cime de Mont-Quaix,SEM:GENCIMEMONT,45.25733,5.74609,56,Quaix-en-Chartreuse
897,Pablo Neruda,SEM:GENPABLONER,45.17395,5.76074,59,Saint-Martin-d'Hères
898,Hautes Vues,SEM:GENHAUT,45.163,5.83953,59,Saint-Martin-d'Uriage
899,Lotissement La Noyarey,SEM:GENLOTI,45.16166,5.84281,59,Saint-Martin-d'Uriage
900,Le Penet,SEM:GENPENET,45.15872,5.84837,59,Saint-Martin-d'Uriage
901,Carrefour du Replat,SEM:GENCARRE,45.16155,5.85101,59,Saint-Martin-d'Uriage
902,Le Pinet d'Uriage,SEM:GENPINET,45.16524,5.84899,59,Saint-Martin-d'Uriage
903,Les Valets,SEM:GENVALET,45.16749,5.85808,59,Saint-Martin-d'Uriage
904,Izards Patte d'Oie,SEM:GENISAR,45.16887,5.86486,59,Saint-Martin-d'Uriage
905,La Croix de Pinet,SEM:GENCROI,45.17245,5.87398,59,Saint-Martin-d'Uriage
906,Le Rocharey,SEM:GENROCH,45.17497,5.87056,59,Saint-Martin-d'Uriage
907,Corps d'Uriage,SEM:GENCORP,45.17815,5.86484,59,Saint-Martin-d'Uriage
908,La Pérérée,SEM:GENPERE,45.17626,5.86102,59,Saint-Martin-d'Uriage
909,La Chenevarie,SEM:GENCHENE,45.17334,5.85764,59,Saint-Martin-d'Uriage
910,Le Rossin,SEM:GENRONS,45.17026,5.85419,59,Saint-Martin-d'Uriage
911,Hameau Le Faux,SEM:GENFAUX,45.17162,5.84658,59,Saint-Martin-d'Uriage
912,Combeloup,SEM:GENCOMB,45.1697,5.84306,59,Saint-Martin-d'Uriage
913,La Ronzière,SEM:GENRONZ,45.16881,5.84064,59,Saint-Martin-d'Uriage
914,Saint Nizier d'Uriage,SEM:GENSNU,45.16418,5.83474,59,Saint-Martin-d'Uriage
915,Le Chapon,SEM:GENLECHAPON,45.17096,5.82185,59,Venon
916,Les Puis,SEM:GENPUIS,45.17206,5.81643,59,Venon
917,Le Reynet,SEM:GENLEREYNET,45.16989,5.81322,59,Venon
918,Sous-Perroud,SEM:GENSOUSPERO,45.1703,5.81077,59,Venon
919,Le Perroud,SEM:GENLEPERROU,45.17245,5.81036,59,Venon
920,Cul Froid,SEM:GENCULFROID,45.17006,5.80858,59,Venon
921,La Chênaie,SEM:GENLACHENAI,45.17051,5.80746,59,Venon
922,Venon Mairie,SEM:GENVENONMAI,45.17165,5.80482,59,Venon
923,La Ville,SEM:GENLAVILLE,45.17409,5.80262,59,Venon
924,La Serralière,SEM:GENLASERRAL,45.17283,5.79806,59,Venon
925,La Frênaie,SEM:GENFRENAIE,45.17338,5.79514,59,Venon
926,La Faurie,SEM:GENLAFAURIE,45.17542,5.79467,59,Venon
927,Pont de Venon,SEM:GENPONTDEV,45.17823,5.79043,59,Gières
928,Edelweiss,SEM:GENEDELWEIS,45.18149,5.78755,59,Gières
929,Gières Gare - Universités,SEM:GENGIERGARE,45.18528,5.78458,59,Gières
930,Le Chamandier,SEM:GENLECHAMAN,45.18186,5.78095,59,Gières
931,Planfay Haut,SEM:GENPLANFAY,45.27874,5.71787,60,Proveysieux
932,Planfay Combaleyre,SEM:GENCOMBALEY,45.27742,5.71585,60,Proveysieux
933,Planfay Bas,SEM:GENPLANF,45.27869,5.71357,60,Proveysieux
934,Pomarey,SEM:GENPOMAREY,45.28232,5.71079,60,Proveysieux
935,Pomarey Bas,SEM:GENPOMAR,45.28045,5.70961,60,Proveysieux
936,Savoyardière,SEM:GENSAVOY,45.27833,5.70833,60,Proveysieux
937,Pont du Gua,SEM:GENEGREGUA,45.27608,5.70727,60,Proveysieux
938,Le Bazeau,SEM:GENBAZE,45.26586,5.6998,60,Proveysieux
939,Proveysieux Village,SEM:GENEGRECOLE,45.26335,5.69973,60,Proveysieux
940,La Chiaise,SEM:GENCHIAISE,45.26117,5.69831,60,Proveysieux
941,Le Mollard,SEM:GENEGREMOLL,45.25822,5.69591,60,Proveysieux
942,Moretière,SEM:GENMORE,45.25405,5.69438,60,Proveysieux
943,Garcinière,SEM:GENRIGAU,45.25164,5.69488,60,Proveysieux
944,Bellevue,SEM:GENBELLEVU,45.24406,5.69244,60,Saint-Égrève
945,Champy,SEM:GENCHAMPY,45.23991,5.69158,60,Saint-Égrève
946,Chemin Vert,SEM:GENCHEMVER,45.2366,5.69236,60,Saint-Égrève
947,Collège Barnave,SEM:GENBARNA,45.23097,5.69175,60,Saint-Égrève
948,Chemin Fiancey,SEM:GENFIANCEY,45.22864,5.69171,60,Saint-Égrève
949,Muret,SEM:GENMURET,45.22618,5.68616,60,Saint-Égrève
950,Muret,SEM:GENMURET,45.22618,5.68616,61,Saint-Égrève
951,Chemin Fiancey,SEM:GENFIANCEY,45.22864,5.69171,61,Saint-Égrève
952,Collège Barnave,SEM:GENBARNA,45.23097,5.69175,61,Saint-Égrève
953,Chemin Vert,SEM:GENCHEMVER,45.2366,5.69236,61,Saint-Égrève
954,Champy,SEM:GENCHAMPY,45.23991,5.69158,61,Saint-Égrève
955,Grange Haute,SEM:GENGRANG,45.24558,5.69563,61,Saint-Égrève
956,Le Bas de Quaix,SEM:GENBASQUAIX,45.25399,5.70142,61,Quaix-en-Chartreuse
957,Route de Saint-Egrève,SEM:GENROUSTEGR,45.25488,5.7048,61,Quaix-en-Chartreuse
958,Le Barbet,SEM:GENBARBET,45.25801,5.70815,61,Quaix-en-Chartreuse
959,Bas de Petesset,SEM:GENBASPET,45.25635,5.71059,61,Quaix-en-Chartreuse
960,Quaix-en-Chartreuse Place,SEM:GENPLACEQUA,45.25319,5.71732,61,Quaix-en-Chartreuse
961,Quaix-en-Chartreuse Village,SEM:GENECOLE,45.25346,5.71992,61,Quaix-en-Chartreuse
962,La Prairie,SEM:GENLAPRAIRI,45.29462,5.76561,62,Sarcenas
963,Col de Porte,SEM:GENCOLPORTE,45.28982,5.76704,62,Sarcenas
964,Pont du Croz,SEM:GENSARCROZ,45.27669,5.75747,62,Sarcenas
965,Sarcenas Le Village,SEM:GENSARCENA,45.2734,5.75861,62,Sarcenas
966,Col de Palaquit,SEM:GENPALAQUIT,45.27308,5.7657,62,Sarcenas
967,Les Jonquilles,SEM:GENMOLLARSA,45.26467,5.7742,62,Le Sappey-en-Chartreuse
968,Churut,SEM:GENCHURU,45.26474,5.77743,62,Le Sappey-en-Chartreuse
969,Le Sappey-en-Chartreuse Place,SEM:GENPLACESAP,45.25948,5.77706,62,Le Sappey-en-Chartreuse
970,Le Gouillat,SEM:GENLEGOUILL,45.25474,5.77111,62,Le Sappey-en-Chartreuse
971,Saint-Eynard,SEM:GENSAINTEYN,45.24926,5.76534,62,Le Sappey-en-Chartreuse
972,Hameau de Vence,SEM:GENHVENCE,45.24179,5.75433,62,Corenc
973,Col de Vence,SEM:GENCOLVENCE,45.234,5.75107,62,Corenc
974,Batonnière,SEM:GENCHEMBATO,45.22733,5.75876,62,Corenc
975,La Garenne,SEM:GENGARENNE,45.22729,5.76583,62,Corenc
976,Rochasson,SEM:GENMOLLARD,45.22364,5.7678,62,Corenc
977,Providence,SEM:GENPROVIDEN,45.22111,5.76456,62,Corenc
978,Corenc Village,SEM:GENCORENCVI,45.21983,5.76229,62,Corenc
979,La Corne d'Or,SEM:GENCORNEDOR,45.21809,5.76046,62,Corenc
980,Monument,SEM:GENMONUMENT,45.217,5.7536,62,Corenc
981,Le Gorget,SEM:GENLEGORGET,45.21529,5.74853,62,La Tronche
982,Saint-Germain,SEM:GENSTGERMAI,45.21015,5.74408,62,La Tronche
983,Le Rozan,SEM:GENLERONZA,45.20926,5.7423,62,La Tronche
984,Bastille,SEM:GENBASTILLE,45.20444,5.7376,62,La Tronche
985,Petite Tronche,SEM:GENPTTRONCH,45.20195,5.73416,62,La Tronche
986,Saint-Laurent,SEM:GENSTLAUREN,45.19802,5.73257,62,Grenoble
987,Xavier Jouvin,SEM:GENXAVJOUVI,45.1956,5.73009,62,Grenoble
988,Notre-Dame - Musée,SEM:GENNOTREDAM,45.19358,5.73214,62,Grenoble
989,Saint Egrève Gare,SEM:GENSTEGVGAR,45.23531,5.67151,63,Saint-Égrève
990,Les Bonnais,SEM:GENBONNAIS,45.24058,5.67257,63,Saint-Égrève
991,Karben,SEM:GENKARBEN,45.24235,5.67093,63,Saint-Égrève
992,Rafour,SEM:GENRAFOUR,45.24868,5.66688,63,Fontanil-Cornillon
993,Le Fontanil Mairie,SEM:GENFONTANIM,45.25618,5.66633,63,Fontanil-Cornillon
994,Le Fontanil Cimetière,SEM:GENFONTCIM,45.25823,5.66385,63,Fontanil-Cornillon
995,La Rivoire,SEM:GENLARIVO,45.26869,5.6686,63,Mont-Saint-Martin
996,Fochaire,SEM:GENFOCHAIRE,45.27158,5.67442,63,Mont-Saint-Martin
997,Colavière,SEM:GENCOLAVIER,45.27237,5.67606,63,Mont-Saint-Martin
998,Chemin de Namière,SEM:GENNAMIERE,45.27232,5.67853,63,Mont-Saint-Martin
999,L'Etoile,SEM:GENLETOILE,45.13788,5.7033,64,Le Pont-de-Claix
1000,ZI des Iles,SEM:GENZILES,45.13853,5.69449,64,Le Pont-de-Claix
1001,Marianne,SEM:GENMARIANNE,45.13495,5.69291,64,Le Pont-de-Claix
1002,120 Toises,SEM:GEN120TOISE,45.13625,5.69496,64,Le Pont-de-Claix
1003,Le Péage,SEM:GENPEAGEDEV,45.0577,5.77102,65,Vizille
1004,Vizille Lycée,SEM:GENLTE,45.06872,5.76836,65,Vizille
1005,Place du Château,SEM:GENCHAT,45.07572,5.77221,65,Vizille
1006,Les Forges,SEM:GENLESFORGE,45.07716,5.76858,65,Vizille
1007,Parc Vöhringen,SEM:GENVOHRIGEN,45.07888,5.76947,65,Vizille
1008,L'Alliance,SEM:GENALLIANCE,45.08152,5.76865,65,Vizille
1009,Chantefeuille,SEM:GENCHANTEFE,45.08058,5.77486,65,Vizille
1010,Le Grimpillon,SEM:GENGRIMPI,45.08233,5.77515,65,Vizille
1011,Brié Église,SEM:GENBRIEGLIS,45.11119,5.78653,65,Brié-et-Angonnes
1012,Mont Rolland,SEM:GENBRIE,45.11528,5.78405,65,Brié-et-Angonnes
1013,L'Olympe,SEM:GENBRIECOLE,45.11784,5.78285,65,Brié-et-Angonnes
1014,Le Replat,SEM:GENREPLAT,45.1209,5.78154,65,Brié-et-Angonnes
1015,Les Métraux,SEM:GENMETRA,45.12164,5.78504,65,Brié-et-Angonnes
1016,Le Coin,SEM:GENSOUVEVI,45.12799,5.78511,65,Brié-et-Angonnes
1017,Souveyron,SEM:GENSOUVE,45.13061,5.77825,65,Brié-et-Angonnes
1018,L'Enclos,SEM:GENLENCLOS,45.1333,5.77484,65,Brié-et-Angonnes
1019,Tavernolles,SEM:GENTAVER,45.13628,5.77037,65,Brié-et-Angonnes
1020,Le Verderet,SEM:GENVERDERET,45.14694,5.75428,65,Eybens
1021,Le Bourg,SEM:GENLEBOURG,45.14781,5.75116,65,Eybens
1022,Les Javaux,SEM:GENJAVAUX,45.15034,5.7499,65,Eybens
1023,L'Iliade,SEM:GENILIADE,45.14713,5.74546,65,Eybens
1024,Pré au Crêt,SEM:GENPREAUCR,45.14405,5.7401,65,Eybens
1025,François Quesnay,SEM:GENFRQUESNA,45.1479,5.73517,65,Échirolles
1026,Alpexpo,SEM:GENALPEXPO,45.15449,5.73379,65,Eybens
1027,Polesud - Alpexpo,SEM:GENPOLESUD,45.15715,5.73384,65,Grenoble
1028,Grand'place,SEM:GENGRDPLACE,45.15893,5.73179,65,Grenoble
1029,La Rampe - Centre-Ville,SEM:GENRAMPE,45.14948,5.71818,66,Échirolles
1030,Antoine Polotti,SEM:GENPOLOTTI,45.1486,5.72251,66,Échirolles
1031,Le Château,SEM:GENCHATEAU,45.14732,5.72671,66,Échirolles
1032,Guy Mocquet,SEM:GENGUYMOCQU,45.14548,5.72585,66,Échirolles
1033,Paul Langevin,SEM:GENLANGEVIN,45.14346,5.72313,66,Échirolles
1034,Marie Curie,SEM:GENMARIECUR,45.14523,5.71704,66,Échirolles
1035,Auguste Delaune,SEM:GENADELAUNE,45.14292,5.71527,66,Échirolles
1036,Denis Papin,SEM:GENDENPAPIN,45.13832,5.71307,66,Échirolles
1037,Gay Lussac,SEM:GENGAYLUSSA,45.13645,5.71214,66,Échirolles
1038,Pied de la Combe,SEM:GENCOMBE,45.13446,5.71471,66,Échirolles
1039,Place du Laca,SEM:GENPLACA,45.11379,5.72863,66,Champagnier
1040,Le Plâtre,SEM:GENLEPLATR,45.11776,5.7479,66,Jarrie
1041,Les Thévenets,SEM:GENTHEVE,45.11571,5.75102,66,Jarrie
1042,Les Simianes,SEM:GENSIMIA,45.11612,5.75778,66,Jarrie
1043,Les Chaberts,SEM:GENCHABER,45.10734,5.74936,66,Jarrie
1044,Maupertuis,SEM:GENMAUPERTJ,45.10558,5.74645,66,Jarrie
1045,Les Charbonnaux,SEM:GENCHARBON,45.10097,5.74215,66,Jarrie
1046,Le Vernet Croix,SEM:GENVERNET,45.09617,5.73978,66,Jarrie
1047,André Malraux,SEM:GENANMAL,45.09462,5.74417,66,Jarrie
1048,Clos Jouvin,SEM:GENCLOSJUV,45.09693,5.74585,66,Jarrie
1049,Herbeys Le Bourg,SEM:GENHEBOURG,45.13887,5.79311,67,Herbeys
1050,Le Chollet,SEM:GENCHOLLET,45.14025,5.78364,67,Brié-et-Angonnes
1051,Les Angonnes,SEM:GENANGONNES,45.13993,5.77617,67,Brié-et-Angonnes
1052,Beaulieu,SEM:GENBEAULIEU,45.13855,5.77355,67,Brié-et-Angonnes
1053,Tavernolles,SEM:GENTAVER,45.13628,5.77037,67,Brié-et-Angonnes
1054,Le Verderet,SEM:GENVERDERET,45.14694,5.75428,67,Eybens
1055,Le Bourg,SEM:GENLEBOURG,45.14781,5.75116,67,Eybens
1056,Les Javaux,SEM:GENJAVAUX,45.15034,5.7499,67,Eybens
1057,L'Iliade,SEM:GENILIADE,45.14713,5.74546,67,Eybens
1058,Pré au Crêt,SEM:GENPREAUCR,45.14405,5.7401,67,Eybens
1059,François Quesnay,SEM:GENFRQUESNA,45.1479,5.73517,67,Échirolles
1060,Alpexpo,SEM:GENALPEXPO,45.15449,5.73379,67,Eybens
1061,Polesud - Alpexpo,SEM:GENPOLESUD,45.15715,5.73384,67,Grenoble
1062,Grand'place,SEM:GENGRDPLACE,45.15893,5.73179,67,Grenoble
1063,Collège des Saules,SEM:GENCOLLSAUL,45.16143,5.74306,67,Eybens
1064,Marie Curie,SEM:GENMARIECUR,45.14523,5.71704,68,Échirolles
1065,La Rampe - Centre-Ville,SEM:GENRAMPE,45.14948,5.71818,68,Échirolles
1066,Antoine Polotti,SEM:GENPOLOTTI,45.1486,5.72251,68,Échirolles
1067,Le Château,SEM:GENCHATEAU,45.14732,5.72671,68,Échirolles
1068,Stade,SEM:GENSTADE,45.1435,5.72943,68,Échirolles
1069,Commanderie,SEM:GENCOMMANDE,45.14363,5.73336,68,Échirolles
1070,Avenue de la République,SEM:GENAVREPUB,45.14279,5.73589,68,Bresson
1071,La Maritelle,SEM:GENMARITELL,45.14162,5.74135,68,Bresson
1072,Les Vignes,SEM:GENVIGNES,45.13809,5.74574,68,Bresson
1073,Bresson Mairie,SEM:GENBRESSON,45.1377,5.74771,68,Bresson
1074,Lagay,SEM:GENLAGAY,45.1408,5.74997,68,Bresson
1075,Le Crêt,SEM:GENLECRET,45.14391,5.74859,68,Eybens
1076,Eybens Mairie,SEM:GENEYBMAIRI,45.14733,5.74979,68,Eybens
1077,Le Verderet,SEM:GENVERDERET,45.14694,5.75428,68,Eybens
1078,Grand Verger,SEM:GENGDVERGER,45.07385,5.72957,70,Champ-sur-Drac
1079,Montchaboud Le Village,SEM:GENMONTCHAV,45.09498,5.76482,70,Montchaboud
1080,Champ Clocher,SEM:GENCHAMP,45.09222,5.7702,70,Montchaboud
1081,Le Grimpillon,SEM:GENGRIMPI,45.08233,5.77515,70,Vizille
1082,Chantefeuille,SEM:GENCHANTEFE,45.08058,5.77486,70,Vizille
1083,Ecoles Joliot-Curie,SEM:GENEJCURIE,45.08403,5.77517,70,Vizille
1084,Collège Les Mattons,SEM:GENCOLMATTO,45.08654,5.77467,70,Vizille
1085,Camping,SEM:GENCAMPVIZ,45.08593,5.77127,70,Vizille
1086,Vénaria,SEM:GENVENARIA,45.08187,5.77163,70,Vizille
1087,L'Alliance,SEM:GENALLIANCE,45.08152,5.76865,70,Vizille
1088,Parc Vöhringen,SEM:GENVOHRIGEN,45.07888,5.76947,70,Vizille
1089,Les Forges,SEM:GENLESFORGE,45.07716,5.76858,70,Vizille
1090,Place du Château,SEM:GENCHAT,45.07572,5.77221,70,Vizille
1091,Vizille Lycée,SEM:GENLTE,45.06872,5.76836,70,Vizille
1092,Jarrie Gare,SEM:GENGAREJARR,45.08563,5.74255,70,Jarrie
1093,Pont de Champ,SEM:GENPONTCN,45.0875,5.73031,70,Champ-sur-Drac
1094,Espace Navarre,SEM:GENROMANCHE,45.08662,5.73067,70,Champ-sur-Drac
1095,Léo Lagrange,SEM:GENLEOLA,45.08448,5.73474,70,Champ-sur-Drac
1096,Zola - Mairie,SEM:GENSALLEZOL,45.08261,5.73371,70,Champ-sur-Drac
1097,Le Pavillon,SEM:GENECOLELP,45.07999,5.73469,70,Champ-sur-Drac
1098,Marcel Paul,SEM:GENGONNADIE,45.07745,5.73156,70,Champ-sur-Drac
1099,Stade Perrouault,SEM:GENSTADEPER,45.07559,5.72718,70,Champ-sur-Drac
1100,ZA La Plaine,SEM:GENCHAMPSD,45.06841,5.72308,70,Champ-sur-Drac
1101,La Melle,SEM:GENLAMELLE,45.07063,5.72713,70,Champ-sur-Drac
1102,Place du Laca,SEM:GENPLACA,45.11379,5.72863,71,Champagnier
1103,Le Plâtre,SEM:GENLEPLATR,45.11776,5.7479,71,Jarrie
1104,Les Thévenets,SEM:GENTHEVE,45.11571,5.75102,71,Jarrie
1105,Les Simianes,SEM:GENSIMIA,45.11612,5.75778,71,Jarrie
1106,Les Chaberts,SEM:GENCHABER,45.10734,5.74936,71,Jarrie
1107,Maupertuis,SEM:GENMAUPERTJ,45.10558,5.74645,71,Jarrie
1108,Les Charbonnaux,SEM:GENCHARBON,45.10097,5.74215,71,Jarrie
1109,Le Vernet Croix,SEM:GENVERNET,45.09617,5.73978,71,Jarrie
1110,André Malraux,SEM:GENANMAL,45.09462,5.74417,71,Jarrie
1111,Jarrie Gare,SEM:GENGAREJARR,45.08563,5.74255,71,Jarrie
1112,Notre-Dame-de-Commiers Le Village,SEM:GENNDCV,45.00967,5.70015,73,Notre-Dame-de-Commiers
1113,Les Pauttats,SEM:GENPAUT,45.01148,5.70161,73,Notre-Dame-de-Commiers
1114,Le Moulin,SEM:GENMOULIN,45.01516,5.7045,73,Notre-Dame-de-Commiers
1115,Pré du Bil,SEM:GENPREBIL,45.02466,5.70658,73,Saint-Georges-de-Commiers
1116,Saint-Pierre Eglise,SEM:GENSAINTPE,45.02819,5.70607,73,Saint-Georges-de-Commiers
1117,La Tour,SEM:GENLATOUR,45.03822,5.70418,73,Saint-Georges-de-Commiers
1118,Les Guiberts,SEM:GENGUILBERT,45.03859,5.70576,73,Saint-Georges-de-Commiers
1119,Les Condamines,SEM:GENCONDAM,45.04472,5.70732,73,Saint-Georges-de-Commiers
1120,Le Canal,SEM:GENCANAL,45.05212,5.7104,73,Saint-Georges-de-Commiers
1121,Les Isles,SEM:GENISLE,45.04881,5.70664,73,Saint-Georges-de-Commiers
1122,Les Peupliers,SEM:GENPEUPLE,45.04571,5.70237,73,Saint-Georges-de-Commiers
1123,Saint-Georges-de-Commiers Gare,SEM:GENSTGCOMMI,45.04363,5.70174,73,Saint-Georges-de-Commiers
1124,Vif Gare,SEM:GENVIFGARE,45.04824,5.68573,73,Vif
1125,Le Masségu,SEM:GENMASSEGU,45.05194,5.67464,73,Vif
1126,Rivalta,SEM:GENVIFGEND,45.05301,5.67655,73,Vif
1127,Vif Mairie,SEM:GENVIFMAIRI,45.05584,5.66897,73,Vif
