,name,Code,lat,lon,ligne
0,Meylan Maupertuis,SEM:GENMAUPERTU,45.21285,5.79719,C1
1,Pré de l'Eau,SEM:GENPREDEAU,45.22384,5.81961,C1
2,Pré Millet,SEM:GENPREMILL,45.22181,5.81305,C1
3,INRIA,SEM:GENINRIA,45.21747,5.80738,C1
4,Baudonniere,SEM:GENBEAUDONI,45.2145,5.80779,C1
5,Busserolles,SEM:GENBUSSEROL,45.20884,5.79756,C1
6,Norbert Ségard,SEM:GENNORBSEGA,45.20915,5.79489,C1
7,Les Béalières,SEM:GENBEALIERE,45.21153,5.7907,C1
8,Malacher,SEM:GENMALACHER,45.21122,5.78722,C1
9,Granier,SEM:GENGRANIER,45.21027,5.78453,C1
10,Meylan Mairie,SEM:GENMEYLMAIR,45.20928,5.7785,C1
11,Piscine des Buclos,SEM:GENPISBUCLO,45.20888,5.77538,C1
12,Le Brêt,SEM:GENLEBRET,45.2059,5.77174,C1
13,La Revirée,SEM:GENREVIREE,45.20733,5.76796,C1
14,Aiguinards-Hexagone,SEM:GENAIGUIHEX,45.20556,5.76449,C1
15,Plaine Fleurie,SEM:GENPLAINEFL,45.20276,5.76139,C1
16,Carronnerie - Ile d'Amour,SEM:GENCARONRIE,45.20116,5.7588,C1
17,Sablons,SEM:GENSABLONS,45.19647,5.75206,C1
18,Grenoble Hôtel de Ville,SEM:GENGREHOTEL,45.18746,5.73779,C1
19,Chavant,SEM:GENCHAVANT,45.18466,5.73177,C1
20,Docteur Martin,SEM:GENDRMARTIN,45.18731,5.72728,C1
21,Victor Hugo,SEM:GENVICTHUGO,45.18938,5.72499,C1
22,Docteur Mazet,SEM:GENDRMAZET,45.19128,5.72201,C1
23,Félix Viallet,SEM:GENFELIXVIA,45.19073,5.71847,C1
24,Gares,SEM:GENGARES,45.19078,5.71554,C1
25,Arago,SEM:GENARAGO,45.19709,5.71174,C1
26,Cité Jean Macé,SEM:GENCITEMACE,45.19996,5.7105,C1
27,Pont Rouge,SEM:GENPTROUGE,45.11832,5.69254,C2
28,Pont-de-Claix Mairie,SEM:GENPTCLXMAI,45.12288,5.6977,C2
29,Marcelline,SEM:GENMARCELLI,45.12553,5.69795,C2
30,Irène Joliot-Curie,SEM:GENIRENEJOL,45.12742,5.69856,C2
31,L'Amphi,SEM:GENLAMPHI,45.13035,5.69975,C2
32,Iles de Mars,SEM:GENILESMARS,45.13197,5.70026,C2
33,Clos Dominique,SEM:GENCLOSDOMI,45.13546,5.70127,C2
34,L'Etoile,SEM:GENLETOILE,45.13788,5.7033,C2
35,Ecureuil,SEM:GENECUREUIL,45.14261,5.70384,C2
36,Bayard,SEM:GENBAYARD,45.14591,5.70478,C2
37,Quinzaine,SEM:GENQUINZAIN,45.15149,5.70664,C2
38,Navis,SEM:GENNAVIS,45.15627,5.70842,C2
39,Marielle Franco - Rondeau,SEM:GENRONDEAU,45.16072,5.70965,C2
40,Stade Lesdiguières,SEM:GENSTADLESD,45.16429,5.71097,C2
41,Louise Michel,SEM:GENLMICHEL,45.16976,5.71287,C2
42,Victor Hugo,SEM:GENVICTHUGO,45.18938,5.72499,C3
43,Championnet,SEM:GENCHAMPION,45.18554,5.72318,C3
44,Marceau - Jardin des Vallons,SEM:GENMARCEAU,45.18245,5.72217,C3
45,Foch - Ferrié,SEM:GENFOCHFERI,45.1808,5.72256,C3
46,Capuche,SEM:GENCAPUCHE,45.17614,5.72539,C3
47,Eugène Sue,SEM:GENEUGENESU,45.17284,5.72476,C3
48,Clos d'Or,SEM:GENCLOSDOR,45.16955,5.72321,C3
49,Vigny,SEM:GENVIGNY,45.16744,5.72338,C3
50,Village Olympique,SEM:GENVILLOLYM,45.16411,5.72404,C3
51,Christophe Turc,SEM:GENCHRISTUR,45.16137,5.72414,C3
52,Edmond Esmonin,SEM:GENEDMOESMO,45.15937,5.72662,C3
53,Grand'place,SEM:GENGRDPLACE,45.15893,5.73179,C3
54,Polesud - Alpexpo,SEM:GENPOLESUD,45.15715,5.73384,C3
55,Alpexpo,SEM:GENALPEXPO,45.15449,5.73379,C3
56,François Quesnay,SEM:GENFRQUESNA,45.1479,5.73517,C3
57,Hôpital Sud,SEM:GENHOPITSUD,45.1469,5.73274,C3
58,Ecoles Hospitalières,SEM:GENECOLHOSP,45.14638,5.72973,C3
59,Le Château,SEM:GENCHATEAU,45.14732,5.72671,C3
60,Guy Mocquet,SEM:GENGUYMOCQU,45.14548,5.72585,C3
61,Paul Langevin,SEM:GENLANGEVIN,45.14346,5.72313,C3
62,Le Village,SEM:GENVILLAGE,45.14133,5.72057,C3
63,Centre du graphisme,SEM:GENGRAPH,45.14185,5.71816,C3
64,Le Verderet,SEM:GENVERDERET,45.14694,5.75428,C4
65,Le Bourg,SEM:GENLEBOURG,45.14781,5.75116,C4
66,Les Javaux,SEM:GENJAVAUX,45.15034,5.7499,C4
67,Odyssée,SEM:GENODYSSEE,45.15273,5.74876,C4
68,Val d'Eybens,SEM:GENVALEYBEN,45.15905,5.74558,C4
69,Général de Gaulle,SEM:GENDEGAULLE,45.16163,5.74447,C4
70,Maisons Neuves,SEM:GENMAISNEUV,45.16491,5.74252,C4
71,Jean Racine,SEM:GENJRACINE,45.16682,5.74175,C4
72,Teisseire,SEM:GENTEISSEIR,45.17081,5.74016,C4
73,Paul Claudel,SEM:GENPCLAUDEL,45.17336,5.73851,C4
74,Ponsard,SEM:GENPONSARD,45.17597,5.7372,C4
75,Bajatière,SEM:GENBAJATIER,45.17813,5.73614,C4
76,Mallifaud,SEM:GENMALLIFAU,45.18033,5.73507,C4
77,Driant,SEM:GENDRIANT,45.18228,5.7341,C4
78,Chavant,SEM:GENCHAVANT,45.18466,5.73177,C4
79,Docteur Martin,SEM:GENDRMARTIN,45.18731,5.72728,C4
80,Victor Hugo,SEM:GENVICTHUGO,45.18938,5.72499,C4
81,Henri Dunant,SEM:GENHDUNANT,45.17441,5.7083,C5
82,Palais de Justice - Gare,SEM:GENPALJUSTI,45.19164,5.71086,C5
83,Esclangon,SEM:GENESCLANGO,45.19158,5.7065,C5
84,Berriat-Le Magasin,SEM:GENBERRIAT,45.18878,5.70588,C5
85,Cémoi,SEM:GENCEMOI,45.18495,5.70573,C5
86,Vallier - Catane,SEM:GENVALLCATA,45.18002,5.70558,C5
87,Rosa Parks,SEM:GENRHINDANU,45.17497,5.70522,C5
88,Docteur Schweitzer,SEM:GENDRSCHWEI,45.17245,5.70632,C5
89,Lys Rouge,SEM:GENLYSROUGE,45.17304,5.71057,C5
90,Alliés,SEM:GENALLIES,45.17398,5.71427,C5
91,Marché d'Intérêt National,SEM:GENMAINNATI,45.17354,5.71805,C5
92,Stalingrad-Alliés,SEM:GENSTALALLI,45.17172,5.72435,C5
93,Flaubert - Clos d'Or,SEM:GENFLAUCLOS,45.17049,5.72791,C5
94,Malherbe,SEM:GENMALHERBE,45.16928,5.73229,C5
95,Louis Jouvet,SEM:GENLOUISJOU,45.16999,5.73712,C5
96,Teisseire,SEM:GENTEISSEIR,45.17081,5.74016,C5
97,Paul Cocat,SEM:GENPAULCOCA,45.17226,5.74478,C5
98,André Argouges,SEM:GENARGOUGES,45.17537,5.74447,C5
99,Saint-Augustin,SEM:GENSTAUGUST,45.17827,5.74591,C5
100,Bon Pasteur,SEM:GENBONPASTE,45.17875,5.7509,C5
101,Edouard Vaillant,SEM:GENEDVAILLA,45.17902,5.75528,C5
102,Pierre Sémard,SEM:GENPIERSEMA,45.18128,5.75712,C5
103,Neyrpic - Belledonne,SEM:GENNEYRBELL,45.18669,5.75716,C5
104,Clinique Belledonne,SEM:GENCLINBELD,45.18598,5.76095,C5
105,Champ Roman,SEM:GENCHAMPROM,45.18438,5.76824,C5
106,Les Alpilles,SEM:GENPROMOSOC,45.18714,5.76958,C5
107,Bibliothèques Universitaires,SEM:GENBIBLIUNI,45.19246,5.7709,C5
108,Universités - Biologie,SEM:GENBIOLOGIE,45.19195,5.77474,C5
109,Henri Wallon,SEM:GENHENRIWAL,45.17563,5.76392,C6
110,Pablo Neruda,SEM:GENPABLONER,45.17395,5.76074,C6
111,Etienne Grappe,SEM:GENETIEGRAP,45.17213,5.75769,C6
112,8 mai 1945,SEM:GEN8MAI1945,45.17106,5.75682,C6
113,Zella Mehlis,SEM:GENZELLAMEL,45.16707,5.75354,C6
114,Chopin,SEM:GENCHOPIN,45.16605,5.75142,C6
115,Le Marais,SEM:GENLEMARAIS,45.16412,5.75044,C6
116,La Châtelière,SEM:GENCHATELIE,45.16217,5.74903,C6
117,Général de Gaulle,SEM:GENDEGAULLE,45.16163,5.74447,C6
118,Collège des Saules,SEM:GENCOLLSAUL,45.16143,5.74306,C6
119,Raymond Chanas,SEM:GENRAYCHANA,45.15968,5.73822,C6
120,Grand'place,SEM:GENGRDPLACE,45.15893,5.73179,C6
121,Edmond Esmonin,SEM:GENEDMOESMO,45.15937,5.72662,C6
122,Maison des Anciens,SEM:GENMAISANCI,45.15975,5.72325,C6
123,Essarts - La Butte,SEM:GENESSARTS,45.15588,5.71909,C6
124,Seyssins Rondeau,SEM:GENSEYSROND,45.16035,5.69373,C6
125,Le Prisme,SEM:GENPRISME,45.16639,5.69055,C6
126,Tuilerie,SEM:GENTUILERIE,45.16906,5.69215,C6
127,Grand Pré - Centre Sud,SEM:GENCENTRESU,45.17084,5.69457,C6
128,La Plaine,SEM:GENLAPLAINE,45.1726,5.69689,C6
129,Beau Site,SEM:GENBEAUSITE,45.17591,5.69696,C6
130,L'Arche,SEM:GENCENTRSOC,45.17817,5.69702,C6
131,Seyssinet-Pariset Hôtel de Ville,SEM:GENSEYHDV,45.18032,5.69707,C6
132,Les Iles,SEM:GENLESILES,45.1841,5.69716,C6
133,Aristide Bergès,SEM:GENARBERGES,45.18551,5.69465,C6
134,Louis Maisonnat,SEM:GENMAISONNA,45.18912,5.69409,C6
135,Curie - Vercors,SEM:GENCURIVERC,45.19188,5.69505,C6
136,Rue Pasteur,SEM:GENRUEPASTE,45.19421,5.69473,C6
137,Charmettes,SEM:GENCHARMETT,45.1974,5.69355,C6
138,Saint-Eynard,SEM:GENSTEYNARD,45.20113,5.69021,C6
139,La Sure,SEM:GENLASURE,45.20279,5.68586,C6
140,Chamechaude,SEM:GENCHAMECHA,45.2051,5.68348,C6
141,Martyrs - Résistance,SEM:GENMARESIST,45.2081,5.69661,C6
142,Oxford,SEM:GENPRESQUIL,45.20613,5.6994,C6
143,Universités - IUT - UFRAPS,SEM:GENIUTUFRAP,45.19766,5.77588,C7
144,Epicéa,SEM:GENEPICEA,45.19496,5.77481,C7
145,Universités - Biologie,SEM:GENBIOLOGIE,45.19195,5.77474,C7
146,Bibliothèques Universitaires,SEM:GENBIBLIUNI,45.19246,5.7709,C7
147,Les Alpilles,SEM:GENPROMOSOC,45.18714,5.76958,C7
148,Champ Roman,SEM:GENCHAMPROM,45.18438,5.76824,C7
149,Coli,SEM:GENCOLI,45.18073,5.76596,C7
150,Rocheplane,SEM:GENROCHEPLA,45.1783,5.76236,C7
151,Henri Wallon,SEM:GENHENRIWAL,45.17563,5.76392,C7
152,Pablo Neruda,SEM:GENPABLONER,45.17395,5.76074,C7
153,Etienne Grappe,SEM:GENETIEGRAP,45.17213,5.75769,C7
154,Potié,SEM:GENPOTIE,45.17088,5.75859,C7
155,Croix du Pâtre,SEM:GENCXPATRE,45.16821,5.76174,C7
156,Saint-Martin-d'Hères Village,SEM:GENSMHVILLA,45.16512,5.76552,C7
157,Le Carina,SEM:GENCARINA,45.16238,5.76305,C7
158,Centre Socio-Culturel,SEM:GENCENSOCIO,45.15886,5.75948,C7
159,Champ Fila,SEM:GENCHAMPFIL,45.15627,5.75505,C7
160,Odyssée,SEM:GENODYSSEE,45.15273,5.74876,C7
161,Les Ruires-Boétie,SEM:GENRUIRES,45.14932,5.74122,C7
162,François Quesnay,SEM:GENFRQUESNA,45.1479,5.73517,C7
163,Hôpital Sud,SEM:GENHOPITSUD,45.1469,5.73274,C7
164,Ecoles Hospitalières,SEM:GENECOLHOSP,45.14638,5.72973,C7
165,Le Château,SEM:GENCHATEAU,45.14732,5.72671,C7
166,Antoine Polotti,SEM:GENPOLOTTI,45.1486,5.72251,C7
167,La Rampe - Centre-Ville,SEM:GENRAMPE,45.14948,5.71818,C7
168,Fernand Pelloutier,SEM:GENPELLOUTI,45.15084,5.71482,C7
169,Grugliasco,SEM:GENGRUGLIAS,45.15127,5.70946,C7
170,Quinzaine,SEM:GENQUINZAIN,45.15149,5.70664,C7
171,Bayard,SEM:GENBAYARD,45.14591,5.70478,C7
172,Colonel Manhès,SEM:GENCOLMANHE,45.14647,5.70177,C7
173,Musée Géo Charles,SEM:GENMUSGEOCH,45.14878,5.70172,C7
174,Drac,SEM:GENDRAC2,45.14895,5.69397,C7
175,Comboire,SEM:GENCOMBOIRE,45.14583,5.69081,C7
176,L'Etoile,SEM:GENLETOILE,45.13788,5.7033,A
177,Edmée Chandon,SEM:GENCHANDON,45.13671,5.7083,A
178,Denis Papin,SEM:GENDENPAPIN,45.13832,5.71307,A
179,Auguste Delaune,SEM:GENADELAUNE,45.14292,5.71527,A
180,Marie Curie,SEM:GENMARIECUR,45.14523,5.71704,A
181,La Rampe - Centre-Ville,SEM:GENRAMPE,45.14948,5.71818,A
182,Echirolles Gare,SEM:GENECHIGARE,45.15302,5.71848,A
183,Essarts - La Butte,SEM:GENESSARTS,45.15588,5.71909,A
184,Surieux,SEM:GENSURIEUX,45.15846,5.72192,A
185,Les Granges,SEM:GENGRANGES,45.15696,5.72781,A
186,Polesud - Alpexpo,SEM:GENPOLESUD,45.15715,5.73384,A
187,Grand'place,SEM:GENGRDPLACE,45.15893,5.73179,A
188,Arlequin,SEM:GENARLEQUIN,45.16359,5.73047,A
189,La Bruyère-Parc Jean Verlhac,SEM:GENBRUYERE,45.16635,5.73118,A
190,Malherbe,SEM:GENMALHERBE,45.16928,5.73229,A
191,MC2: Maison de la Culture,SEM:GENMAICULTU,45.17347,5.73206,A
192,Mounier,SEM:GENMOUNIER,45.179,5.73179,A
193,Albert 1er de Belgique,SEM:GENALB1BELG,45.18168,5.73167,A
194,Chavant,SEM:GENCHAVANT,45.18466,5.73177,A
195,Verdun - Préfecture,SEM:GENVERDUN,45.1883,5.73144,A
196,Hubert Dubedout - Maison du Tourisme,SEM:GENDUBEDOUT,45.1902,5.72822,A
197,Victor Hugo,SEM:GENVICTHUGO,45.18938,5.72499,A
198,Alsace-Lorraine,SEM:GENALSACELO,45.18911,5.7193,A
199,Gares,SEM:GENGARES,45.19078,5.71554,A
200,Saint-Bruno,SEM:GENSTBRUNO,45.18833,5.71351,A
201,Berriat-Le Magasin,SEM:GENBERRIAT,45.18878,5.70588,A
202,Les Fontainades - Le Vog,SEM:GENFONTAINA,45.18909,5.69844,A
203,Louis Maisonnat,SEM:GENMAISONNA,45.18912,5.69409,A
204,Fontaine Hôtel de Ville - La Source,SEM:GENFONTAHDV,45.19134,5.68727,A
205,Charles Michels,SEM:GENCHARLMIC,45.19385,5.68009,A
206,La Poya,SEM:GENLAPOYA,45.19709,5.67222,A
207,Plaine des Sports,SEM:GENPLAINEDS,45.18805,5.78421,B
208,Gières Gare - Universités,SEM:GENGIERGARE,45.18528,5.78458,B
209,Mayencin - Champ Roman,SEM:GENMAYENCIN,45.18491,5.77895,B
210,Condillac - Universités,SEM:GENCONDIUNI,45.18915,5.77445,B
211,Bibliothèques Universitaires,SEM:GENBIBLIUNI,45.19246,5.7709,B
212,Gabriel Fauré - MUSE,SEM:GENGABFAURE,45.19228,5.7643,B
213,Les Taillées - Universités,SEM:GENTAILLEES,45.19215,5.75784,B
214,Grand Sablon,SEM:GENGRDSABLO,45.19903,5.75,B
215,Michallon,SEM:GENMICHALLO,45.20028,5.74533,B
216,La Tronche Hôpital,SEM:GENTRONCHOP,45.20123,5.74184,B
217,Ile Verte,SEM:GENILEVERTE,45.19713,5.73662,B
218,Notre-Dame - Musée,SEM:GENNOTREDAM,45.19358,5.73214,B
219,Sainte-Claire - Les Halles,SEM:GENSTECLAIR,45.19146,5.73067,B
220,Hubert Dubedout - Maison du Tourisme,SEM:GENDUBEDOUT,45.1902,5.72822,B
221,Victor Hugo,SEM:GENVICTHUGO,45.18938,5.72499,B
222,Alsace-Lorraine,SEM:GENALSACELO,45.18911,5.7193,B
223,Gares,SEM:GENGARES,45.19078,5.71554,B
224,Saint-Bruno,SEM:GENSTBRUNO,45.18833,5.71351,B
225,Palais de Justice - Gare,SEM:GENPALJUSTI,45.19164,5.71086,B
226,Cité Internationale,SEM:GENCITEINTE,45.19508,5.7112,B
227,Marie-Louise Paris - CEA,SEM:GENCEACAMB,45.20216,5.70431,B
228,Oxford,SEM:GENPRESQUIL,45.20613,5.6994,B
229,Plaine des Sports,SEM:GENPLAINEDS,45.18805,5.78421,C
230,Gières Gare - Universités,SEM:GENGIERGARE,45.18528,5.78458,C
231,Mayencin - Champ Roman,SEM:GENMAYENCIN,45.18491,5.77895,C
232,Condillac - Universités,SEM:GENCONDIUNI,45.18915,5.77445,C
233,Bibliothèques Universitaires,SEM:GENBIBLIUNI,45.19246,5.7709,C
234,Gabriel Fauré - MUSE,SEM:GENGABFAURE,45.19228,5.7643,C
235,Hector Berlioz - Universités,SEM:GENHBERLUNI,45.19137,5.75866,C
236,Neyrpic - Belledonne,SEM:GENNEYRBELL,45.18669,5.75716,C
237,Péri - Brossolette,SEM:GENPERIBROS,45.18771,5.75142,C
238,Flandrin - Valmy,SEM:GENVALMY,45.18719,5.7448,C
239,Grenoble Hôtel de Ville,SEM:GENGREHOTEL,45.18746,5.73779,C
240,Chavant,SEM:GENCHAVANT,45.18466,5.73177,C
241,Gustave Rivet,SEM:GENGUSTRIVE,45.1817,5.72783,C
242,Foch - Ferrié,SEM:GENFOCHFERI,45.1808,5.72256,C
243,Vallier - Libération,SEM:GENVALLIBE,45.18013,5.71608,C
244,Vallier - Docteur Calmette,SEM:GENDRCALME,45.18013,5.71077,C
245,Vallier - Catane,SEM:GENVALLCATA,45.18002,5.70558,C
246,Seyssinet-Pariset Hôtel de Ville,SEM:GENSEYHDV,45.18032,5.69707,C
247,Fauconnière,SEM:GENFAUCONNI,45.17651,5.69427,C
248,Grand Pré,SEM:GENGRANDPRE,45.17178,5.69424,C
249,Mas des Iles,SEM:GENMASDESIL,45.16727,5.69424,C
250,Le Prisme,SEM:GENPRISME,45.16639,5.69055,C
251,Les Taillées - Universités,SEM:GENTAILLEES,45.19215,5.75784,D
252,Plaine des Sports,SEM:GENPLAINEDS,45.18805,5.78421,D
253,Gières Gare - Universités,SEM:GENGIERGARE,45.18528,5.78458,D
254,Mayencin - Champ Roman,SEM:GENMAYENCIN,45.18491,5.77895,D
255,Condillac - Universités,SEM:GENCONDIUNI,45.18915,5.77445,D
256,Bibliothèques Universitaires,SEM:GENBIBLIUNI,45.19246,5.7709,D
257,Gabriel Fauré - MUSE,SEM:GENGABFAURE,45.19228,5.7643,D
258,Hector Berlioz - Universités,SEM:GENHBERLUNI,45.19137,5.75866,D
259,Neyrpic - Belledonne,SEM:GENNEYRBELL,45.18669,5.75716,D
260,Maison Communale,SEM:GENMAISONCO,45.18412,5.75414,D
261,Edouard Vaillant,SEM:GENEDVAILLA,45.17902,5.75528,D
262,Parc Jo Blanchon,SEM:GENBLANCHON,45.17585,5.75684,D
263,Etienne Grappe,SEM:GENETIEGRAP,45.17213,5.75769,D
264,Louise Michel,SEM:GENLMICHEL,45.16976,5.71287,E
265,Alliés,SEM:GENALLIES,45.17398,5.71427,E
266,Vallier - Libération,SEM:GENVALLIBE,45.18013,5.71608,E
267,Plaine des Sports,SEM:GENPLAINEDS,45.18805,5.78421,E
268,Gières Gare - Universités,SEM:GENGIERGARE,45.18528,5.78458,E
269,Mayencin - Champ Roman,SEM:GENMAYENCIN,45.18491,5.77895,E
270,Condillac - Universités,SEM:GENCONDIUNI,45.18915,5.77445,E
271,Bibliothèques Universitaires,SEM:GENBIBLIUNI,45.19246,5.7709,E
272,Gabriel Fauré - MUSE,SEM:GENGABFAURE,45.19228,5.7643,E
273,Hector Berlioz - Universités,SEM:GENHBERLUNI,45.19137,5.75866,E
274,Neyrpic - Belledonne,SEM:GENNEYRBELL,45.18669,5.75716,E
275,Péri - Brossolette,SEM:GENPERIBROS,45.18771,5.75142,E
276,Flandrin - Valmy,SEM:GENVALMY,45.18719,5.7448,E
277,Grenoble Hôtel de Ville,SEM:GENGREHOTEL,45.18746,5.73779,E
278,Chavant,SEM:GENCHAVANT,45.18466,5.73177,E
279,Gustave Rivet,SEM:GENGUSTRIVE,45.1817,5.72783,E
280,Foch - Ferrié,SEM:GENFOCHFERI,45.1808,5.72256,E
281,Condorcet,SEM:GENCONDORCE,45.18553,5.71823,E
282,Alsace-Lorraine,SEM:GENALSACELO,45.18911,5.7193,E
283,Annie Fratellini-Esplanade,SEM:GENESPLANAD,45.19566,5.71679,E
284,Casamaures - Village,SEM:GENCASAVILL,45.19902,5.71747,E
285,Saint-Martin-le-Vinoux Hôtel de Ville,SEM:GENMAIRIESM,45.20826,5.70685,E
286,Horloge,SEM:GENHORLOGE,45.21363,5.69885,E
287,Néron,SEM:GENNERON,45.21782,5.69334,E
288,Fiancey - Prédieu,SEM:GENPREDIEU,45.22359,5.68827,E
289,Muret,SEM:GENMURET,45.22618,5.68616,E
290,Pont de Vence,SEM:GENPTVENCE,45.23009,5.6823,E
291,La Pinéa - St Robert,SEM:GENPINEA,45.23565,5.67549,E
292,Karben,SEM:GENKARBEN,45.24235,5.67093,E
293,Rafour,SEM:GENRAFOUR,45.24868,5.66688,E
294,Palluel,SEM:GENFONTANIL,45.25507,5.66148,E
295,Abbé Grégoire,SEM:GENABBEGREG,45.18388,5.71174,12
296,Les Alloves,SEM:GENALLOVES,45.17204,5.76518,12
297,Glaïeuls,SEM:GENGLAIEULS,45.16964,5.76358,12
298,Croix du Pâtre,SEM:GENCXPATRE,45.16821,5.76174,12
299,Potié,SEM:GENPOTIE,45.17088,5.75859,12
300,Etienne Grappe,SEM:GENETIEGRAP,45.17213,5.75769,12
301,Edmond Rostand,SEM:GENEDROSTAN,45.17446,5.75432,12
302,Houille Blanche,SEM:GENHOUILLEB,45.17794,5.7517,12
303,Bon Pasteur,SEM:GENBONPASTE,45.17875,5.7509,12
304,Grand Châtelet,SEM:GENGDCHATEL,45.18194,5.74841,12
305,Jeanne d'Arc,SEM:GENJEANNARC,45.18177,5.74518,12
306,Madeleine,SEM:GENMADELEIN,45.18515,5.74324,12
307,Bir Hakeim,SEM:GENBIRHAKEI,45.18886,5.73639,12
308,Verdun - Préfecture,SEM:GENVERDUN,45.1883,5.73144,12
309,Docteur Martin,SEM:GENDRMARTIN,45.18731,5.72728,12
310,Championnet,SEM:GENCHAMPION,45.18554,5.72318,12
311,Condorcet,SEM:GENCONDORCE,45.18553,5.71823,12
312,Chorier - Condorcet,SEM:GENCHORCOND,45.18593,5.71744,12
313,Chorier - Saint-Bruno,SEM:GENSTBRUNNC,45.18592,5.71403,12
314,D'Alembert,SEM:GENALEMBERT,45.18422,5.71064,12
315,Groupe Hospitalier Mutualiste,SEM:GENCLINMUT,45.18126,5.71028,12
316,Vallier - Docteur Calmette,SEM:GENDRCALME,45.18013,5.71077,12
317,Champs-Elysées,SEM:GENCHAMPSEL,45.17794,5.71025,12
318,Salengro,SEM:GENSALENGRO,45.17566,5.70887,12
319,Henri Dunant,SEM:GENHDUNANT,45.17441,5.7083,12
320,Docteur Schweitzer,SEM:GENDRSCHWEI,45.17245,5.70632,12
321,Anatole France,SEM:GENANATFRAN,45.17186,5.70495,12
322,Cité Paul Mistral,SEM:GENCITEPMIS,45.16855,5.70479,12
323,Bachelard,SEM:GENBACHELAR,45.16681,5.70594,12
324,Stade Lesdiguières,SEM:GENSTADLESD,45.16429,5.71097,12
325,Verlaine,SEM:GENVERLAINE,45.16193,5.71613,12
326,Maison des Anciens,SEM:GENMAISANCI,45.15975,5.72325,12
327,Edmond Esmonin,SEM:GENEDMOESMO,45.15937,5.72662,12
328,Grand'place,SEM:GENGRDPLACE,45.15893,5.73179,12
329,Raymond Chanas,SEM:GENRAYCHANA,45.15968,5.73822,12
330,Les Géants,SEM:GENPLGEANTS,45.16115,5.73994,12
331,Les Saules,SEM:GENSAULES,45.16188,5.74176,12
332,Maisons Neuves,SEM:GENMAISNEUV,45.16491,5.74252,12
333,Cimetière Intercommunal,SEM:GENPREMOL,45.15752,5.76412,13
334,Centre Socio-Culturel,SEM:GENCENSOCIO,45.15886,5.75948,13
335,Robespierre,SEM:GENROBESPIE,45.15985,5.75718,13
336,Bel Air,SEM:GENBELAIR,45.16106,5.75525,13
337,Le Marais,SEM:GENLEMARAIS,45.16412,5.75044,13
338,Paul Eluard,SEM:GENPAULELUA,45.16512,5.74887,13
339,Pierre Loti,SEM:GENPIERRELO,45.16664,5.74646,13
340,Léon Jouhaux,SEM:GENLEONJOUH,45.169,5.74444,13
341,Paul Cocat,SEM:GENPAULCOCA,45.17226,5.74478,13
342,André Argouges,SEM:GENARGOUGES,45.17537,5.74447,13
343,Suzanne Noël - Les Bains,SEM:GENLESBAINS,45.17821,5.74264,13
344,Edison,SEM:GENEDISON,45.18183,5.74091,13
345,Clémenceau,SEM:GENCLEMENCE,45.18388,5.74107,13
346,Auguste Ravier,SEM:GENAUGURAVI,45.18399,5.73965,13
347,Driant,SEM:GENDRIANT,45.18228,5.7341,13
348,Chavant,SEM:GENCHAVANT,45.18466,5.73177,13
349,Docteur Martin,SEM:GENDRMARTIN,45.18731,5.72728,13
350,Verdun - Préfecture,SEM:GENVERDUN,45.1883,5.73144,13
351,Mutualité,SEM:GENMUTUALIT,45.19046,5.73663,13
352,Saint-Roch,SEM:GENSTROCH,45.19129,5.73851,13
353,Cimetière du Grand Sablon,SEM:GENCIMETIGS,45.19247,5.74534,13
354,Hôpital Michallon,SEM:GENHOPMICHA,45.19714,5.74758,13
355,La Tronche Hôpital,SEM:GENTRONCHOP,45.20123,5.74184,13
356,Commandant Nal,SEM:GENCOMMANAL,45.20324,5.74535,13
357,Musée Hébert,SEM:GENMUSHEBER,45.20564,5.74888,13
358,Centre Théologique,SEM:GENCENTHEOL,45.20617,5.75215,13
359,Le Cèdre,SEM:GENCEDRE,45.20783,5.75552,13
360,Jules Flandrin,SEM:GENJFLANDRI,45.20854,5.75845,13
361,Grésivaudan,SEM:GENGRESIVAU,45.20997,5.76177,13
362,Place de la Louisiane,SEM:GENPLALOUIS,45.20876,5.76321,13
363,Aiguinards-Hexagone,SEM:GENAIGUIHEX,45.20556,5.76449,13
364,La Revirée,SEM:GENREVIREE,45.20733,5.76796,13
365,Faculté de Pharmacie,SEM:GENFACPHARM,45.2115,5.77392,13
366,Lycée du Grésivaudan - Bachais,SEM:GENLYCBACHA,45.21416,5.7791,13
367,Lycée du Grésivaudan,SEM:GENLYCGRESI,45.2134,5.78085,13
368,Verdun - Préfecture,SEM:GENVERDUN,45.1883,5.73144,14
369,Bir Hakeim,SEM:GENBIRHAKEI,45.18886,5.73639,14
370,Flandrin - Valmy,SEM:GENVALMY,45.18719,5.7448,14
371,Croix Rouge,SEM:GENCROIXROU,45.18558,5.7479,14
372,Gay,SEM:GENGAY,45.18479,5.75086,14
373,Maison Communale,SEM:GENMAISONCO,45.18412,5.75414,14
374,Cité Labeye,SEM:GENCITELABE,45.18234,5.7598,14
375,Portail Rouge,SEM:GENPORTAILR,45.1814,5.76347,14
376,Coli,SEM:GENCOLI,45.18073,5.76596,14
377,Elsa Triolet,SEM:GENELSATRIO,45.17958,5.77015,14
378,Galochère,SEM:GENGALOCHER,45.17878,5.77315,14
379,Anguisses,SEM:GENANGUISSE,45.17782,5.77786,14
380,Roseraie,SEM:GENROSERAIE,45.17901,5.78101,14
381,Edelweiss,SEM:GENEDELWEIS,45.18149,5.78755,14
382,Gières Gare - Universités,SEM:GENGIERGARE,45.18528,5.78458,14
383,Les Arnauds,SEM:GENARNAUDS,45.20683,5.84788,15
384,René Cassin,SEM:GENRENECASS,45.2045,5.84416,15
385,Chenevières,SEM:GENCHENEVIE,45.20673,5.82734,15
386,Les Vernes,SEM:GENVERNES,45.20713,5.83398,15
387,Le Prieuré,SEM:GENPRIEURE,45.20489,5.83576,15
388,Domène Mairie,SEM:GENDOMENEMA,45.20152,5.83821,15
389,Coubertin,SEM:GENCOUBERTI,45.20004,5.83528,15
390,L'Oratoire,SEM:GENORATOIRE,45.19819,5.83412,15
391,Les Mortes,SEM:GENMORTES,45.19635,5.82887,15
392,Les Rivets,SEM:GENRIVETS,45.19482,5.82455,15
393,La Briot,SEM:GENBRIOT,45.19299,5.81948,15
394,Le Bourg,SEM:GENBOURG,45.19187,5.81647,15
395,La Perrière,SEM:GENPERRIERE,45.18935,5.81079,15
396,Le Japin,SEM:GENLEJAPIN,45.18746,5.80706,15
397,Champrondet,SEM:GENCHAMPRON,45.18578,5.80285,15
398,Pied de Gières,SEM:GENPIEDGIER,45.18388,5.79852,15
399,Place de la République,SEM:GENPLREPUBL,45.18209,5.79257,15
400,Edelweiss,SEM:GENEDELWEIS,45.18149,5.78755,15
401,Le Sonnant,SEM:GENSONNANT,45.18161,5.78271,15
402,Porte du Grésivaudan,SEM:GENPORTGRES,45.18253,5.77665,15
403,Champ Roman,SEM:GENCHAMPROM,45.18438,5.76824,15
404,Clinique Belledonne,SEM:GENCLINBELD,45.18598,5.76095,15
405,Neyrpic - Belledonne,SEM:GENNEYRBELL,45.18669,5.75716,15
406,Péri - Brossolette,SEM:GENPERIBROS,45.18771,5.75142,15
407,Flandrin - Valmy,SEM:GENVALMY,45.18719,5.7448,15
408,Bir Hakeim,SEM:GENBIRHAKEI,45.18886,5.73639,15
409,Verdun - Préfecture,SEM:GENVERDUN,45.1883,5.73144,15
410,Lycée du Grésivaudan,SEM:GENLYCGRESI,45.2134,5.78085,16
411,Les Mûriers,SEM:GENMURIERS,45.21549,5.77954,16
412,Haut-Meylan,SEM:GENHTMEYLAN,45.21798,5.77913,16
413,La Foy,SEM:GENLAFOY,45.2171,5.77634,16
414,Buclos,SEM:GENBUCLOS,45.21581,5.77226,16
415,Les Oiseaux,SEM:GENOISEAUX,45.21506,5.76867,16
416,Eygala,SEM:GENEYGALA,45.21385,5.76461,16
417,Montfleury,SEM:GENMONTFLEU,45.21204,5.75709,16
418,Corenc Mairie,SEM:GENCORENCMA,45.20974,5.75272,16
419,Croix de Montfleury,SEM:GENCXMONTFL,45.20879,5.74934,16
420,Grande Tronche,SEM:GENGDTRONCH,45.20704,5.74578,16
421,Jules Rey,SEM:GENJULESREY,45.20658,5.74278,16
422,Bastille,SEM:GENBASTILLE,45.20444,5.7376,16
423,Petite Tronche,SEM:GENPTTRONCH,45.20195,5.73416,16
424,Saint-Laurent,SEM:GENSTLAUREN,45.19802,5.73257,16
425,Xavier Jouvin,SEM:GENXAVJOUVI,45.1956,5.73009,16
426,Notre-Dame - Musée,SEM:GENNOTREDAM,45.19358,5.73214,16
427,Hôtel de Police,SEM:GENHOPOLICE,45.1941,5.73571,16
428,Saint-Roch,SEM:GENSTROCH,45.19129,5.73851,16
429,Mutualité,SEM:GENMUTUALIT,45.19046,5.73663,16
430,Verdun - Préfecture,SEM:GENVERDUN,45.1883,5.73144,16
431,Docteur Martin,SEM:GENDRMARTIN,45.18731,5.72728,16
432,Caserne de Bonne,SEM:GENCASBONNE,45.18506,5.72533,16
433,Gustave Rivet,SEM:GENGUSTRIVE,45.1817,5.72783,16
434,Rue des Déportés,SEM:GENDEPORTES,45.17829,5.72771,16
435,Capuche,SEM:GENCAPUCHE,45.17614,5.72539,16
436,Eugène Sue,SEM:GENEUGENESU,45.17284,5.72476,16
437,Clos d'Or,SEM:GENCLOSDOR,45.16955,5.72321,16
438,Massenet,SEM:GENMASSENET,45.16771,5.72108,16
439,Beauvert,SEM:GENBEAUVERT,45.16417,5.71792,16
440,Verlaine,SEM:GENVERLAINE,45.16193,5.71613,16
441,Les Essarts,SEM:GENLESESSAR,45.1593,5.71376,16
442,Monmousseau,SEM:GENMONMOUSS,45.15354,5.71188,16
443,Grugliasco,SEM:GENGRUGLIAS,45.15127,5.70946,16
444,Les Glières,SEM:GENGLIERES,45.14962,5.71167,16
445,Paul Héroult,SEM:GENPHEROULT,45.14728,5.71347,16
446,Marie Curie,SEM:GENMARIECUR,45.14523,5.71704,16
447,Auguste Delaune,SEM:GENADELAUNE,45.14292,5.71527,16
448,Auguste Ferrier,SEM:GENAUGUFERR,45.14483,5.70962,16
449,Bayard,SEM:GENBAYARD,45.14591,5.70478,16
450,Colonel Manhès,SEM:GENCOLMANHE,45.14647,5.70177,16
451,Danielle Casanova,SEM:GENCASANOVA,45.14448,5.70071,16
452,Vassieux,SEM:GENVASSIEUX,45.14303,5.70002,16
453,Gendarmerie,SEM:GENLALUIRE,45.14003,5.69852,16
454,Denis Papin,SEM:GENDENPAPIN,45.13832,5.71307,16
455,Collège Pablo Picasso,SEM:GENPABLOPIC,45.14464,5.69816,16
456,Garlettes,SEM:GENGARLETTE,45.14748,5.67773,19
457,Seyssins Village,SEM:GENSEYVILLA,45.15628,5.68128,19
458,Garlettes,SEM:GENCIMETIGA,45.14524,5.67678,19
459,Henri Rey,SEM:GENHENRIREY,45.1474,5.67773,19
460,Pré Nouvel,SEM:GENPRENOUVE,45.15141,5.68039,19
461,L'Argoud,SEM:GENARGOUD,45.15433,5.68029,19
462,Seyssins Village,SEM:GENSEYSVILL,45.15628,5.68128,19
463,Ancienne Gare,SEM:GENANCIGARE,45.15978,5.68178,19
464,Les Combes,SEM:GENLECOMB,45.16807,5.67875,19
465,Seyssinet Village,SEM:GENSNETVILA,45.17052,5.68074,19
466,Belvédère,SEM:GENBELVEDER,45.1765,5.68821,19
467,Murailles,SEM:GENLAMURAIL,45.17825,5.69178,19
468,Bouchayer - Hôtel de Ville,SEM:GENBOUCHDV,45.18077,5.69437,19
469,Aristide Bergès,SEM:GENARBERGES,45.18551,5.69465,19
470,Louis Maisonnat,SEM:GENMAISONNA,45.18912,5.69409,19
471,Curie - Vercors,SEM:GENCURIVERC,45.19188,5.69505,19
472,Rue Pasteur,SEM:GENRUEPASTE,45.19421,5.69473,19
473,Place du Marché Cachin,SEM:GENPLACMARC,45.19588,5.69065,19
474,Jules Guesde,SEM:GENJULESGUE,45.19791,5.68878,19
475,Les Écrins,SEM:GENECRINS,45.19753,5.68631,19
476,Marat,SEM:GENMARAT,45.19915,5.68284,19
477,Rue des Alpes,SEM:GENRUEALPES,45.19799,5.68087,19
478,Gérard Philipe,SEM:GENGERARPHI,45.19647,5.67704,19
479,La Poya,SEM:GENLAPOYA,45.19709,5.67222,19
480,Les Pies,SEM:GENLESPIES,45.19957,5.66989,19
481,Pré Fleury,SEM:GENPREFLEUR,45.20183,5.66763,19
482,Trefforine,SEM:GENTREFFORI,45.20446,5.66499,19
483,Place de la Libération,SEM:GENPLIBERAT,45.20682,5.66281,19
484,Le Gua,SEM:GENLEGUA,45.20969,5.66443,19
485,L'Ovalie,SEM:GENOVALIE,45.20967,5.66695,19
486,La Rive,SEM:GENVEUREYRI,45.26981,5.61825,20
487,Les Echalières,SEM:GENECHALIER,45.26824,5.61944,20
488,Perrières,SEM:GENPERIERES,45.26209,5.6247,20
489,Iles Cordées,SEM:GENILESCORD,45.25971,5.62608,20
490,La Cuche,SEM:GENLACUCHE,45.25606,5.62814,20
491,Le Ruisset,SEM:GENRUISSET,45.25007,5.63156,20
492,Bascule,SEM:GENNOYARBAS,45.24292,5.63217,20
493,Saint-Jean,SEM:GENNOYARSTJ,45.23891,5.63425,20
494,Chaulnes,SEM:GENCHAULNES,45.23655,5.63811,20
495,Praparis - Les Roses,SEM:GENPRAPAROS,45.23226,5.64503,20
496,Praparis Usine,SEM:GENPRAPARIS,45.22925,5.6497,20
497,Les Engenières,SEM:GENENGENIER,45.2196,5.66022,20
498,La Rollandière,SEM:GENROLLANDI,45.21501,5.66112,20
499,Château de Sassenage,SEM:GENCHATSASS,45.21224,5.66167,20
500,Place de la Libération,SEM:GENPLIBERAT,45.20682,5.66281,20
501,Trefforine,SEM:GENTREFFORI,45.20446,5.66499,20
502,Pré Fleury,SEM:GENPREFLEUR,45.20183,5.66763,20
503,Les Pies,SEM:GENLESPIES,45.19957,5.66989,20
504,La Poya,SEM:GENLAPOYA,45.19709,5.67222,20
505,Ancienne Mairie,SEM:GENANCIEMAI,45.19272,5.67806,20
506,Jean Prévost,SEM:GENJEANPREV,45.18955,5.68276,20
507,Karl Marx,SEM:GENKARLMARX,45.18652,5.68729,20
508,Bergès - Vercors,SEM:GENBERGVERC,45.18417,5.69071,20
509,Les Iles,SEM:GENLESILES,45.1841,5.69716,20
510,Seyssinet-Pariset Hôtel de Ville,SEM:GENSEYHDV,45.18032,5.69707,20
511,Garlettes,SEM:GENGARLETTE,45.14748,5.67773,21
512,Pont Rouge,SEM:GENPTROUGE,45.11832,5.69254,21
513,Pompidou,SEM:GENPOMPIDOU,45.11993,5.69255,21
514,La Chièze,SEM:GENCHIEZE,45.12118,5.68251,21
515,La Ronzy,SEM:GENRONZY,45.12083,5.67593,21
516,Claix Mairie,SEM:GENCLAIXMAI,45.12025,5.67247,21
517,Poste,SEM:GENPOSTE,45.1211,5.67214,21
518,Furonnières,SEM:GENFURONNIE,45.12596,5.67131,21
519,La Croix Rolland,SEM:GENCRXROLLA,45.1292,5.67128,21
520,Col de Comboire,SEM:GENCOLCOMBO,45.14004,5.6732,21
521,Garlettes,SEM:GENCIMETIGA,45.14524,5.67678,21
522,Henri Rey,SEM:GENHENRIREY,45.1474,5.67773,21
523,Pré Nouvel,SEM:GENPRENOUVE,45.15141,5.68039,21
524,Hameau des Chaumières,SEM:GENCHAUMIER,45.1547,5.68938,21
525,Le Bournet,SEM:GENBOURNET,45.15765,5.68975,21
526,La Baume,SEM:GENLABAUME,45.16003,5.68982,21
527,Marc Sangnier,SEM:GENMARCSANG,45.16486,5.68915,21
528,Le Prisme,SEM:GENPRISME,45.16639,5.69055,21
529,Oxford,SEM:GENPRESQUIL,45.20613,5.6994,22
530,Louis Gagnière,SEM:GENGAGNIERE,45.21485,5.68576,22
531,Cap des H',SEM:GENCAPDESH,45.21732,5.68127,22
532,Les Glairaux,SEM:GENGLAIRAUX,45.21901,5.67949,22
533,Belledonne,SEM:GENBELLEDON,45.22268,5.684,22
534,Fiancey - Prédieu,SEM:GENPREDIEU,45.22359,5.68827,22
535,Muret,SEM:GENMURET,45.22618,5.68616,22
536,Moutonnées,SEM:GENMOUTONNE,45.22838,5.68422,22
537,Pont de Vence,SEM:GENPTVENCE,45.23009,5.6823,22
538,Visancourt,SEM:GENVISANCOU,45.23317,5.68606,22
539,Cuvilleux,SEM:GENCUVILLEU,45.2349,5.68768,22
540,La Monta,SEM:GENLAMONTA,45.23799,5.68861,22
541,Eglise,SEM:GENEGLISESE,45.23999,5.68407,22
542,Gavanière,SEM:GENGAVANIER,45.24122,5.68148,22
543,Rocher d'Escalade,SEM:GENROCHERES,45.2432,5.67907,22
544,Rochepleine,SEM:GENROCHEPLE,45.24459,5.67517,22
545,Karben,SEM:GENKARBEN,45.24235,5.67093,22
546,Cap 38,SEM:GENCAP38,45.24018,5.66619,22
547,La Biolle - Gare,SEM:GENBIOLLE,45.23522,5.66953,22
548,Saint Egrève Gare,SEM:GENSTEGVGAR,45.23531,5.67151,22
549,Le Péage,SEM:GENPEAGEDEV,45.0577,5.77102,23
550,Vizille Lycée,SEM:GENLTE,45.06872,5.76836,23
551,Place du Château,SEM:GENCHAT,45.07572,5.77221,23
552,Les Allas,SEM:GENLESALLAS,45.07547,5.7786,23
553,Les Corniers,SEM:GENCORNIERS,45.08176,5.78758,23
554,Le Pont du Mas,SEM:GENPONTMAS,45.08679,5.78887,23
555,Les Travers,SEM:GENTRAVERS,45.09132,5.79162,23
556,Chemin des Cottes,SEM:GENLEPLATRE,45.09398,5.79326,23
557,Vaulnaveys-Le-Bas Le Village,SEM:GENVAULBAS,45.10549,5.80042,23
558,Maison Blanche,SEM:GENMAISON,45.11181,5.80512,23
559,Marchandises,SEM:GENMARCHAND,45.11483,5.80766,23
560,Vaulnaveys-Le-Haut Le Village,SEM:GENVAULHAUT,45.11934,5.81099,23
561,Ecole Jules Bruant,SEM:GENJBRUANT,45.12172,5.8144,23
562,Les Guichards,SEM:GENGUICHARD,45.12655,5.8167,23
563,Les Alberges,SEM:GENALBERGES,45.13148,5.81903,23
564,La Tuilerie,SEM:GENLATUILE,45.13617,5.82423,23
565,Route de Saint Martin,SEM:GENSTMARTIN,45.13926,5.82718,23
566,Uriage Gare,SEM:GENURIAGE,45.14395,5.82915,23
567,Croisement 6,SEM:GENCROISEM,45.15287,5.8254,23
568,Les Peiffendes,SEM:GENPEIFFEND,45.15716,5.82241,23
569,Le Maupas,SEM:GENMAUPA,45.15926,5.81904,23
570,Le Chenil,SEM:GENLECHENIL,45.1631,5.8123,23
571,Les Terrats,SEM:GENTERRATS,45.16914,5.79285,23
572,La Combe,SEM:GENLACOMBE,45.17412,5.79001,23
573,Edelweiss,SEM:GENEDELWEIS,45.18149,5.78755,23
574,Gières Gare - Universités,SEM:GENGIERGARE,45.18528,5.78458,23
575,Vignate,SEM:GENVIGNATE,45.18923,5.77806,23
576,Universités - Biologie,SEM:GENBIOLOGIE,45.19195,5.77474,23
577,Bibliothèques Universitaires,SEM:GENBIBLIUNI,45.19246,5.7709,23
578,Les Saillants,SEM:GENSAILLANT,45.02463,5.6458,25
579,Le Pont de Genevrey,SEM:GENPONTGENE,45.02852,5.65171,25
580,L'Usine Nord,SEM:GENUSINENOR,45.03,5.65281,25
581,Le Rif,SEM:GENLERIF,45.0323,5.65546,25
582,La Grange,SEM:GENGRANGE,45.03933,5.66126,25
583,Le Chalet,SEM:GENCHALET,45.04333,5.6644,25
584,La Cime du Bourg,SEM:GENCIMEBOUR,45.04812,5.66739,25
585,La Valonne,SEM:GENLAVALONE,45.05031,5.67129,25
586,Le Masségu,SEM:GENMASSEGU,45.05194,5.67464,25
587,Rivalta,SEM:GENVIFGEND,45.05301,5.67655,25
588,Vif Mairie,SEM:GENVIFMAIRI,45.05584,5.66897,25
589,Uriol,SEM:GENURIOL,45.06063,5.66856,25
590,Les Garcins,SEM:GENGARCINS,45.06389,5.66986,25
591,Pélissière,SEM:GENPELISIER,45.07057,5.67506,25
592,République,SEM:GENVARCESRE,45.08635,5.68298,25
593,L'Oriel,SEM:GENORIEL,45.08937,5.68355,25
594,Rond-Point de l'Europe,SEM:GENRONDEURO,45.09312,5.68375,25
595,Saint-Ange,SEM:GENSTEANGE,45.09683,5.68367,25
596,Le Rochefort,SEM:GENROCHEFOR,45.10164,5.68534,25
597,Pré de l'Orme,SEM:GENPREORME,45.10964,5.6884,25
598,Carrière,SEM:GENCARRIERE,45.11472,5.69018,25
599,Pont Rouge,SEM:GENPTROUGE,45.11832,5.69254,25
600,Pont-de-Claix Mairie,SEM:GENPTCLXMAI,45.12288,5.6977,25
601,Iles de Mars,SEM:GENILESMARS,45.13197,5.70026,25
602,L'Etoile,SEM:GENLETOILE,45.13788,5.7033,25
603,Bayard,SEM:GENBAYARD,45.14591,5.70478,25
604,Quinzaine,SEM:GENQUINZAIN,45.15149,5.70664,25
605,Marielle Franco - Rondeau,SEM:GENRONDEAU,45.16072,5.70965,25
606,Stade Lesdiguières,SEM:GENSTADLESD,45.16429,5.71097,25
607,Louise Michel,SEM:GENLMICHEL,45.16976,5.71287,25
608,Alliés,SEM:GENALLIES,45.17398,5.71427,25
609,Vallier - Libération,SEM:GENVALLIBE,45.18013,5.71608,25
610,Foch - Ferrié,SEM:GENFOCHFERI,45.1808,5.72256,25
611,Colonel Dumont,SEM:GENCAB,45.1815,5.72195,25
612,Les Saillants,SEM:GENSAILLANT,45.02463,5.6458,26
613,Le Pont de Genevrey,SEM:GENPONTGENE,45.02852,5.65171,26
614,L'Usine Nord,SEM:GENUSINENOR,45.03,5.65281,26
615,Le Rif,SEM:GENLERIF,45.0323,5.65546,26
616,La Grange,SEM:GENGRANGE,45.03933,5.66126,26
617,Le Chalet,SEM:GENCHALET,45.04333,5.6644,26
618,La Cime du Bourg,SEM:GENCIMEBOUR,45.04812,5.66739,26
619,La Valonne,SEM:GENLAVALONE,45.05031,5.67129,26
620,Le Masségu,SEM:GENMASSEGU,45.05194,5.67464,26
621,Rivalta,SEM:GENVIFGEND,45.05301,5.67655,26
622,Vif Mairie,SEM:GENVIFMAIRI,45.05584,5.66897,26
623,Uriol,SEM:GENURIOL,45.06063,5.66856,26
624,Les Garcins,SEM:GENGARCINS,45.06389,5.66986,26
625,Pélissière,SEM:GENPELISIER,45.07057,5.67506,26
626,République,SEM:GENVARCESRE,45.08635,5.68298,26
627,L'Oriel,SEM:GENORIEL,45.08937,5.68355,26
628,Rond-Point de l'Europe,SEM:GENRONDEURO,45.09312,5.68375,26
629,Saint-Ange,SEM:GENSTEANGE,45.09683,5.68367,26
630,Le Rochefort,SEM:GENROCHEFOR,45.10164,5.68534,26
631,Vallier - Catane,SEM:GENVALLCATA,45.18002,5.70558,26
632,Vallier - Libération,SEM:GENVALLIBE,45.18013,5.71608,26
633,Alsace-Lorraine,SEM:GENALSACELO,45.18911,5.7193,26
634,Gares,SEM:GENGARES,45.19078,5.71554,26
635,Gare Routière,SEM:GENGAROUTIE,45.19298,5.71406,26
636,Saint-Georges-de-Commiers Gare,SEM:GENSTGCOMMI,45.04363,5.70174,26
637,Vif Gare,SEM:GENVIFGARE,45.04824,5.68573,26
638,Gares,SEM:GENGARES,45.19078,5.71554,40
639,Victor Hugo,SEM:GENVICTHUGO,45.18938,5.72499,40
640,Place Cymaise,SEM:GENPLACECYM,45.195,5.72917,40
641,Maurice Gignoux,SEM:GENGIGNOUX,45.19421,5.72525,40
642,Musée Dauphinois,SEM:GENMUSEEDAU,45.19497,5.72614,40
643,Veyret,SEM:GENVEYRET,45.19483,5.7248,40
644,Le Rabot,SEM:GENRABOT,45.19505,5.72342,40
645,La Garenne,SEM:GENGARENNE,45.22729,5.76583,41
646,Rochasson,SEM:GENMOLLARD,45.22364,5.7678,41
647,Providence,SEM:GENPROVIDEN,45.22111,5.76456,41
648,Corenc Village,SEM:GENCORENCVI,45.21983,5.76229,41
649,La Corne d'Or,SEM:GENCORNEDOR,45.21809,5.76046,41
650,Monument,SEM:GENMONUMENT,45.217,5.7536,41
651,Charles Pajon,SEM:GENPAJON,45.21369,5.75287,41
652,Mairie-Condamine,SEM:GENMAIRIECO,45.21118,5.75092,41
653,Corenc Mairie,SEM:GENCORENCMA,45.20974,5.75272,41
654,Le Cèdre,SEM:GENCEDRE,45.20783,5.75552,41
655,Les Léchères,SEM:GENLECHERES,45.20454,5.75928,41
656,Plaine Fleurie,SEM:GENPLAINEFL,45.20276,5.76139,41
657,La Carronnerie Basse,SEM:GENCARONBAS,45.20114,5.75855,41
658,Pascal,SEM:GENPASCAL,45.1995,5.75527,41
659,Doyen Gosse,SEM:GENDOYENGOS,45.20138,5.75303,41
660,Vercors,SEM:GENVERCORS,45.20065,5.75103,41
661,Grand Sablon,SEM:GENGRDSABLO,45.19903,5.75,41
662,Ancienne Mairie,SEM:GENANCMAIRI,45.21793,5.77933,42
663,Bérivière,SEM:GENBERIVIER,45.21882,5.78312,42
664,Saint-Mury,SEM:GENSTMURY,45.21947,5.78613,42
665,Les Jaillières,SEM:GENJAILLIER,45.22103,5.79007,42
666,Grand Sablon,SEM:GENGRDSABLO,45.19903,5.75,42
667,Vercors,SEM:GENVERCORS,45.20065,5.75103,42
668,Doyen Gosse,SEM:GENDOYENGOS,45.20138,5.75303,42
669,Pascal,SEM:GENPASCAL,45.1995,5.75527,42
670,La Carronnerie Basse,SEM:GENCARONBAS,45.20114,5.75855,42
671,Plaine Fleurie,SEM:GENPLAINEFL,45.20276,5.76139,42
672,Les Léchères,SEM:GENLECHERES,45.20454,5.75928,42
673,Champ Rochas,SEM:GENCHAMROC,45.20744,5.75903,42
674,Place de la Louisiane,SEM:GENPLALOUIS,45.20876,5.76321,42
675,Lionel Terray,SEM:GENTERRAY,45.20999,5.76693,42
676,Revirée - Sayettes,SEM:GENREVIREES,45.21205,5.76638,42
677,Chaumetière,SEM:GENCHAUMETI,45.21244,5.77061,42
678,Saint-Jean Bosco,SEM:GENSTJBOSCO,45.21282,5.77305,42
679,Lycée du Grésivaudan - Bachais,SEM:GENLYCBACHA,45.21416,5.7791,42
680,Les Mûriers,SEM:GENMURIERS,45.21549,5.77954,42
681,Haut-Meylan,SEM:GENHTMEYLAN,45.21798,5.77913,42
682,Champlars,SEM:GENCHAMPLAR,45.22023,5.77982,42
683,Croix des Rameaux,SEM:GENCXRAMEAU,45.22374,5.78177,42
684,Croix de Cibeins,SEM:GENCXCIBENS,45.226,5.7842,42
685,Gué du Boutet,SEM:GENGUEBOUTE,45.22869,5.78464,42
686,Pré Catlan,SEM:GENPRECATLA,45.23002,5.78733,42
687,Montlivet,SEM:GENMONTLIVE,45.22998,5.78981,42
688,Saint-Victor,SEM:GENSTVICTOR,45.2286,5.78928,42
689,La Treille,SEM:GENTREILLE,45.22639,5.79109,42
690,La Détourbe,SEM:GENDETOURBE,45.22278,5.7927,42
691,Les Saillants,SEM:GENSAILLANT,45.02463,5.6458,44
692,Le Gua Mairie,SEM:GENLEGUAMAI,45.02211,5.64457,44
693,Les Rossets,SEM:GENROSSETS,45.01657,5.64083,44
694,Saint-Barthélémy,SEM:GENSTBARTHE,44.99986,5.62946,44
695,La Charrière,SEM:GENLACHARRI,45.01277,5.61587,44
696,Les Faures,SEM:GENLESFAURE,45.01439,5.61354,44
697,Prélenfrey Eglise,SEM:GENPRELENFR,45.01693,5.6133,44
698,L'Arzelier,SEM:GENARZELIER,44.99692,5.60258,44
699,Col de l'Arzelier,SEM:GENCOLARZEL,44.99089,5.59541,44
700,La Pierre,SEM:GENLAPIERRE,44.98916,5.62198,44
701,Cassoulet,SEM:GENCASSOULE,44.98229,5.62309,44
702,Bayanne,SEM:GENBAYANNE,44.97996,5.62235,44
703,Miribel,SEM:GENMIRIBEL,44.97466,5.621,44
704,Le Vernay,SEM:GENLEVERNAY,44.97015,5.60875,44
705,La Giraudière,SEM:GENGIRAUDIE,45.09503,5.67982,45
706,La Valonne,SEM:GENLAVALONE,45.05031,5.67129,45
707,Le Masségu,SEM:GENMASSEGU,45.05194,5.67464,45
708,Rivalta,SEM:GENVIFGEND,45.05301,5.67655,45
709,Z.A. des Speyres,SEM:GENZASPEYRE,45.0569,5.68184,45
710,Allée des Granges,SEM:GENALEGRANG,45.05795,5.68472,45
711,Mas Garni,SEM:GENMASGARNI,45.06078,5.68819,45
712,Le Petit Brion,SEM:GENPETIBRIO,45.06225,5.69018,45
713,Jacobins,SEM:GENJACOBINS,45.06461,5.69128,45
714,La Plaine,SEM:GENPLAINE,45.06686,5.69213,45
715,Ecole Reymure,SEM:GENECOLEREY,45.06908,5.69334,45
716,Rue de la Sacristie,SEM:GENSACRISTI,45.07081,5.69538,45
717,Le Refuge,SEM:GENLEREFUGE,45.07462,5.69959,45
718,Le Gros Chêne,SEM:GENGROSCHEN,45.07832,5.7021,45
719,Malissolles,SEM:GENMALISSOL,45.08396,5.7047,45
720,Fontagneux,SEM:GENFONTAGNE,45.08728,5.70786,45
721,Rozatière,SEM:GENROZATIER,45.08706,5.70241,45
722,Balzac,SEM:GENBALZAZ,45.08728,5.69421,45
723,Berliognière,SEM:GENBERLIOGN,45.08998,5.69249,45
724,Notre-Dame de Lachal,SEM:GENNODAMLAC,45.08736,5.69011,45
725,Pont de la Gresse,SEM:GENLAGRESSE,45.08683,5.68871,45
726,Stendhal,SEM:GENSTEND,45.0871,5.68586,45
727,L'Oriel,SEM:GENORIEL,45.08937,5.68355,45
728,Rond-Point de l'Europe,SEM:GENRONDEURO,45.09312,5.68375,45
729,Saint-Ange,SEM:GENSTEANGE,45.09683,5.68367,45
730,Pré du Sage,SEM:GENPRESAGE,45.10448,5.68324,45
731,Résidence Val d'Allières,SEM:GENRESIVAL,45.10657,5.68032,45
732,Les Lilas,SEM:GENLILAS,45.10788,5.67659,45
733,Pavillon,SEM:GENPAVILLON,45.1084,5.67425,45
734,Parc de la Chatelière,SEM:GENPARCHATE,45.10653,5.67261,45
735,Lavanchon,SEM:GENLAVANCHO,45.10444,5.67348,45
736,Nivolon,SEM:GENNIVOLON,45.10173,5.67246,45
737,Collège Jules Verne,SEM:GENCITESCOL,45.09546,5.67214,45
738,Saint-Paul-de-Varces Place,SEM:GENSPAULMAI,45.07167,5.6426,46
739,La Croix,SEM:GENCROIX,45.07055,5.64494,46
740,La Garde,SEM:GENGARDE,45.07049,5.65062,46
741,La Bascule,SEM:GENBASCULE,45.07181,5.65496,46
742,Le Poulat,SEM:GENPOULAT,45.07444,5.66002,46
743,Le Meinget,SEM:GENMEINGET,45.07973,5.66297,46
744,Chambord,SEM:GENCHAMBORD,45.08519,5.66714,46
745,La Pommeraie,SEM:GENPOMMERAI,45.08765,5.67206,46
746,Les Platanes,SEM:GENPLATANES,45.08933,5.6777,46
747,L'Oriel,SEM:GENORIEL,45.08937,5.68355,46
748,Rond-Point de l'Europe,SEM:GENRONDEURO,45.09312,5.68375,46
749,La Giraudière,SEM:GENGIRAUDIE,45.09503,5.67982,46
750,Collège Jules Verne,SEM:GENCITESCOL,45.09546,5.67214,46
751,Val d'Allières,SEM:GENVALALLIE,45.1069,5.66532,47
752,La Chanteraie,SEM:GENCHANTERA,45.11012,5.66548,47
753,Bellevue,SEM:GENBELLEVUE,45.11196,5.66548,47
754,Les Taillis,SEM:GENTAILLIS,45.11315,5.66577,47
755,Les Pampres,SEM:GENPAMPRES,45.11536,5.66589,47
756,Les Roses,SEM:GENROSES,45.11791,5.66739,47
757,Boulodrome-Ecole,SEM:GENBOULODRO,45.11962,5.66899,47
758,Claix Mairie,SEM:GENCLAIXMAI,45.12025,5.67247,47
759,La Ronzy,SEM:GENRONZY,45.12083,5.67593,47
760,La Chièze,SEM:GENCHIEZE,45.12118,5.68251,47
761,Pompidou,SEM:GENPOMPIDOU,45.11993,5.69255,47
762,Pont Rouge,SEM:GENPTROUGE,45.11832,5.69254,47
763,Charrières,SEM:GENCHARRIER,45.11599,5.68888,47
764,Saint-Michel,SEM:GENSAINTMIC,45.11203,5.68452,47
765,Les Bauches,SEM:GENBAUCHES,45.11083,5.67865,47
766,Pavillon,SEM:GENPAVILLON,45.1084,5.67425,47
767,Risset,SEM:GENRISSET,45.10724,5.67309,47
768,Cossey,SEM:GENCOSSEY,45.13895,5.67006,48
769,Chemin de l'Abbé,SEM:GENCHEABBE,45.13521,5.66842,48
770,Malhivert,SEM:GENMALHIVER,45.13254,5.66688,48
771,La Croix Rolland,SEM:GENCRXROLLA,45.1292,5.67128,48
772,Beau Dunois,SEM:GENBEAU,45.12535,5.67234,48
773,Les Chaumes,SEM:GENCHAUMES,45.1266,5.67411,48
774,Vert Sapin,SEM:GENVERT,45.12558,5.67844,48
775,Les Pérouses,SEM:GENPEROUSES,45.12456,5.67937,48
776,Moucherotte,SEM:GENMOUCHERO,45.12579,5.68096,48
777,Les Cimentiers,SEM:GENCIMENTIE,45.13047,5.68357,48
778,Le Coteau,SEM:GENCOTEAU,45.12669,5.6867,48
779,La Balmette,SEM:GENBALMETTE,45.12521,5.68811,48
780,Mémorial,SEM:GENDRAC,45.12265,5.69102,48
781,Fond Ratel,SEM:GENFONDRATE,45.12215,5.68935,48
782,Pompidou,SEM:GENPOMPIDOU,45.11993,5.69255,48
783,Pont Rouge,SEM:GENPTROUGE,45.11832,5.69254,48
784,Ancienne Gare,SEM:GENANCIGARE,45.15978,5.68178,49
785,Seyssins Village,SEM:GENSEYSVILL,45.15628,5.68128,49
786,Cimetière,SEM:GENCIMESEYP,45.16967,5.68346,49
787,Percevalière,SEM:GENPERCEVAL,45.17016,5.68682,49
788,Tuilerie,SEM:GENTUILERIE,45.16906,5.69215,49
789,Le Prisme,SEM:GENPRISME,45.16639,5.69055,49
790,Parc François Mitterrand,SEM:GENPFMITTER,45.16287,5.6853,49
791,L'Agneau,SEM:GENLAGNEAU,45.1613,5.68296,49
792,Beauvoir,SEM:GENBEAUVOIR,45.15899,5.68325,49
793,Seyssins Village,SEM:GENSEYVILLA,45.15628,5.68128,49
794,Le Priou,SEM:GENLEPRIOU,45.15698,5.6788,49
795,Le Parlement,SEM:GENLEPARL,45.15864,5.67447,49
796,Rue de la Lune,SEM:GENLALUNE,45.15551,5.67222,49
797,Les Côtes,SEM:GENLESCOTES,45.15689,5.6708,49
798,Clinique du Dauphiné,SEM:GENLECELLIE,45.16149,5.67354,49
799,Clinique - Portail,SEM:GENCLINDAU,45.16201,5.67406,49
800,Pariset,SEM:GENPARISE,45.17478,5.65879,49
801,Collège Fleming,SEM:GENCOLFLE,45.20302,5.66953,50
802,La Poya,SEM:GENLAPOYA,45.19709,5.67222,50
803,Les Pies,SEM:GENLESPIES,45.19957,5.66989,50
804,Pré Fleury,SEM:GENPREFLEUR,45.20183,5.66763,50
805,Trefforine,SEM:GENTREFFORI,45.20446,5.66499,50
806,Place de la Libération,SEM:GENPLIBERAT,45.20682,5.66281,50
807,Château de Sassenage,SEM:GENCHATSASS,45.21224,5.66167,50
808,Blanc Fontaine,SEM:GENBLANCFON,45.21064,5.65625,50
809,Les Chênes,SEM:GENCHENES,45.21809,5.65343,50
810,Les Parcs,SEM:GENPARCS,45.21658,5.652,50
811,Rivoire de la Dame,SEM:GENRIVOIRE,45.21493,5.65169,50
812,Mollard Pichon,SEM:GENMOLLARDP,45.21361,5.65249,50
813,Château de Beaurevoir,SEM:GENCHATBEAU,45.21234,5.65202,50
814,Vieux donjon,SEM:GENVIEUXDON,45.21138,5.64977,50
815,Beaurevoir,SEM:GENBEAUREVO,45.21009,5.64861,50
816,Les Côtes,SEM:GENCOTESASS,45.21006,5.64749,50
817,La Dent du Loup,SEM:GENDENT,45.21285,5.64587,50
818,Saint Egrève Gare,SEM:GENSTEGVGAR,45.23531,5.67151,51
819,Les Bonnais,SEM:GENBONNAIS,45.24058,5.67257,51
820,Karben,SEM:GENKARBEN,45.24235,5.67093,51
821,Cap 38,SEM:GENCAP38,45.24018,5.66619,51
822,Praparis - Les Roses,SEM:GENPRAPAROS,45.23226,5.64503,51
823,Chaulnes,SEM:GENCHAULNES,45.23655,5.63811,51
824,Saint-Jean,SEM:GENNOYARSTJ,45.23891,5.63425,51
825,Bascule,SEM:GENNOYARBAS,45.24292,5.63217,51
826,Le Ruisset,SEM:GENRUISSET,45.25007,5.63156,51
827,La Cuche,SEM:GENLACUCHE,45.25606,5.62814,51
828,Iles Cordées,SEM:GENILESCORD,45.25971,5.62608,51
829,Perrières,SEM:GENPERIERES,45.26209,5.6247,51
830,Les Echalières,SEM:GENECHALIER,45.26824,5.61944,51
831,La Rive,SEM:GENVEUREYRI,45.26981,5.61825,51
832,Veurey Eglise,SEM:GENVEUREYEG,45.27225,5.61564,51
833,Veurey Mairie,SEM:GENVEUREYMA,45.27292,5.61302,51
834,Le Béryl,SEM:GENBERYL,45.2748,5.61283,51
835,Petit Châtelard,SEM:GENPTCHATEL,45.27608,5.61213,51
836,Les Marronniers,SEM:GENMARRONNI,45.27636,5.61105,51
837,Chemin du Parc,SEM:GENCHATEAUX,45.27449,5.60613,51
838,Châtelard,SEM:GENCHATELAR,45.27353,5.60481,51
839,Oxford,SEM:GENPRESQUIL,45.20613,5.6994,54
840,Martyrs - Résistance,SEM:GENMARESIST,45.2081,5.69661,54
841,Chamechaude,SEM:GENCHAMECHA,45.2051,5.68348,54
842,Maladière,SEM:GENMALADIER,45.20773,5.68048,54
843,François Blumet,SEM:GENFRBLUMET,45.20966,5.677,54
844,Complexe Sportif,SEM:GENCOMPLEXE,45.21142,5.67272,54
845,L'Ovalie,SEM:GENOVALIE,45.20967,5.66695,54
846,Le Gua,SEM:GENLEGUA,45.20969,5.66443,54
847,Château de Sassenage,SEM:GENCHATSASS,45.21224,5.66167,54
848,La Rollandière,SEM:GENROLLANDI,45.21501,5.66112,54
849,Les Engenières,SEM:GENENGENIER,45.2196,5.66022,54
850,Praparis Usine,SEM:GENPRAPARIS,45.22925,5.6497,54
851,Cap 38,SEM:GENCAP38,45.24018,5.66619,54
852,Karben,SEM:GENKARBEN,45.24235,5.67093,54
853,Les Bonnais,SEM:GENBONNAIS,45.24058,5.67257,54
854,Saint Egrève Gare,SEM:GENSTEGVGAR,45.23531,5.67151,54
855,Vence EcoParc,SEM:GENVENCEECO,45.22773,5.66846,54
856,Pont de Vence,SEM:GENPTVENCE,45.23009,5.6823,54
857,Col de Clémencières,SEM:GENCOLCLEME,45.23437,5.72578,55
858,Ripaillère,SEM:GENRIPAILLE,45.22682,5.72078,55
859,Gatinet,SEM:GENLEGATINE,45.22453,5.71878,55
860,La Buisseratière,SEM:GENBUIS,45.22308,5.71778,55
861,La Rivoire,SEM:GENLARIVOIR,45.22001,5.71507,55
862,La Banchardière,SEM:GENBANCHARD,45.21726,5.71279,55
863,Narbonne,SEM:GENNARBONNE,45.21398,5.71026,55
864,L'Hermitage,SEM:GENLHERMITA,45.21501,5.70418,55
865,Canet,SEM:GENCHEMI,45.21055,5.70612,55
866,Clos Gérard Gruel,SEM:GENCLOSGRUE,45.20968,5.71052,55
867,Clos Saint-Martin,SEM:GENCLOSSTMA,45.20503,5.71402,55
868,16 Août 1944,SEM:GENGUERIMAN,45.20414,5.71545,55
869,Résistance,SEM:GEN16AOUT44,45.20341,5.71433,55
870,Conrad Kilian,SEM:GENCONRADKI,45.20592,5.70944,55
871,Saint-Martin-le-Vinoux Hôtel de Ville,SEM:GENMAIRIESM,45.20826,5.70685,55
872,Collège Chartreuse,SEM:GENCOLCHART,45.21784,5.69096,55
873,Collège Chartreuse,SEM:GENCOLCHART,45.21784,5.69096,56
874,Saint-Martin-le-Vinoux Hôtel de Ville,SEM:GENMAIRIESM,45.20826,5.70685,56
875,Conrad Kilian,SEM:GENCONRADKI,45.20592,5.70944,56
876,Casamaures - Village,SEM:GENCASAVILL,45.19902,5.71747,56
877,Résistance,SEM:GEN16AOUT44,45.20341,5.71433,56
878,16 Août 1944,SEM:GENGUERIMAN,45.20414,5.71545,56
879,Place du Village,SEM:GENSMVINOUX,45.20387,5.71634,56
880,Les Fauvettes,SEM:GENLESFAUVE,45.20589,5.71784,56
881,Le Reposoir,SEM:GENREPOSOIR,45.20945,5.71644,56
882,Les Combes,SEM:GENLESCOMBE,45.20964,5.718,56
883,Hôtel Bellevue,SEM:GENHOTELBEL,45.21153,5.71775,56
884,La Gomma,SEM:GENLAGOMMA,45.21513,5.71914,56
885,Mas Caché,SEM:GENLEMASGAC,45.2177,5.72187,56
886,Lachal,SEM:GENLACHAL,45.22242,5.72475,56
887,Levetière,SEM:GENLEVETIER,45.22629,5.72548,56
888,Col de Clémencières,SEM:GENCOLCLEME,45.23437,5.72578,56
889,Roudier,SEM:GENROUDIER,45.24812,5.73164,56
890,Sous La Frette,SEM:GENSOUSFRET,45.25036,5.73532,56
891,Bas de Mont-Quaix,SEM:GENBASMONT,45.25288,5.74174,56
892,Mont-Quaix,SEM:GENMONTQUAI,45.25575,5.74284,56
893,Fontvieille,SEM:GENFONVIEIL,45.2592,5.7449,56
894,La Cime de Mont-Quaix,SEM:GENCIMEMONT,45.25733,5.74609,56
895,Pablo Neruda,SEM:GENPABLONER,45.17395,5.76074,59
896,Hautes Vues,SEM:GENHAUT,45.163,5.83953,59
897,Lotissement La Noyarey,SEM:GENLOTI,45.16166,5.84281,59
898,Le Penet,SEM:GENPENET,45.15872,5.84837,59
899,Carrefour du Replat,SEM:GENCARRE,45.16155,5.85101,59
900,Le Pinet d'Uriage,SEM:GENPINET,45.16524,5.84899,59
901,Les Valets,SEM:GENVALET,45.16749,5.85808,59
902,Izards Patte d'Oie,SEM:GENISAR,45.16887,5.86486,59
903,La Croix de Pinet,SEM:GENCROI,45.17245,5.87398,59
904,Le Rocharey,SEM:GENROCH,45.17497,5.87056,59
905,Corps d'Uriage,SEM:GENCORP,45.17815,5.86484,59
906,La Pérérée,SEM:GENPERE,45.17626,5.86102,59
907,La Chenevarie,SEM:GENCHENE,45.17334,5.85764,59
908,Le Rossin,SEM:GENRONS,45.17026,5.85419,59
909,Hameau Le Faux,SEM:GENFAUX,45.17162,5.84658,59
910,Combeloup,SEM:GENCOMB,45.1697,5.84306,59
911,La Ronzière,SEM:GENRONZ,45.16881,5.84064,59
912,Saint Nizier d'Uriage,SEM:GENSNU,45.16418,5.83474,59
913,Le Chapon,SEM:GENLECHAPON,45.17096,5.82185,59
914,Les Puis,SEM:GENPUIS,45.17206,5.81643,59
915,Le Reynet,SEM:GENLEREYNET,45.16989,5.81322,59
916,Sous-Perroud,SEM:GENSOUSPERO,45.1703,5.81077,59
917,Le Perroud,SEM:GENLEPERROU,45.17245,5.81036,59
918,Cul Froid,SEM:GENCULFROID,45.17006,5.80858,59
919,La Chênaie,SEM:GENLACHENAI,45.17051,5.80746,59
920,Venon Mairie,SEM:GENVENONMAI,45.17165,5.80482,59
921,La Ville,SEM:GENLAVILLE,45.17409,5.80262,59
922,La Serralière,SEM:GENLASERRAL,45.17283,5.79806,59
923,La Frênaie,SEM:GENFRENAIE,45.17338,5.79514,59
924,La Faurie,SEM:GENLAFAURIE,45.17542,5.79467,59
925,Pont de Venon,SEM:GENPONTDEV,45.17823,5.79043,59
926,Edelweiss,SEM:GENEDELWEIS,45.18149,5.78755,59
927,Gières Gare - Universités,SEM:GENGIERGARE,45.18528,5.78458,59
928,Le Chamandier,SEM:GENLECHAMAN,45.18186,5.78095,59
929,Planfay Haut,SEM:GENPLANFAY,45.27874,5.71787,60
930,Planfay Combaleyre,SEM:GENCOMBALEY,45.27742,5.71585,60
931,Planfay Bas,SEM:GENPLANF,45.27869,5.71357,60
932,Pomarey,SEM:GENPOMAREY,45.28232,5.71079,60
933,Pomarey Bas,SEM:GENPOMAR,45.28045,5.70961,60
934,Savoyardière,SEM:GENSAVOY,45.27833,5.70833,60
935,Pont du Gua,SEM:GENEGREGUA,45.27608,5.70727,60
936,Le Bazeau,SEM:GENBAZE,45.26586,5.6998,60
937,Proveysieux Village,SEM:GENEGRECOLE,45.26335,5.69973,60
938,La Chiaise,SEM:GENCHIAISE,45.26117,5.69831,60
939,Le Mollard,SEM:GENEGREMOLL,45.25822,5.69591,60
940,Moretière,SEM:GENMORE,45.25405,5.69438,60
941,Garcinière,SEM:GENRIGAU,45.25164,5.69488,60
942,Bellevue,SEM:GENBELLEVU,45.24406,5.69244,60
943,Champy,SEM:GENCHAMPY,45.23991,5.69158,60
944,Chemin Vert,SEM:GENCHEMVER,45.2366,5.69236,60
945,Collège Barnave,SEM:GENBARNA,45.23097,5.69175,60
946,Chemin Fiancey,SEM:GENFIANCEY,45.22864,5.69171,60
947,Muret,SEM:GENMURET,45.22618,5.68616,60
948,Muret,SEM:GENMURET,45.22618,5.68616,61
949,Chemin Fiancey,SEM:GENFIANCEY,45.22864,5.69171,61
950,Collège Barnave,SEM:GENBARNA,45.23097,5.69175,61
951,Chemin Vert,SEM:GENCHEMVER,45.2366,5.69236,61
952,Champy,SEM:GENCHAMPY,45.23991,5.69158,61
953,Grange Haute,SEM:GENGRANG,45.24558,5.69563,61
954,Le Bas de Quaix,SEM:GENBASQUAIX,45.25399,5.70142,61
955,Route de Saint-Egrève,SEM:GENROUSTEGR,45.25488,5.7048,61
956,Le Barbet,SEM:GENBARBET,45.25801,5.70815,61
957,Bas de Petesset,SEM:GENBASPET,45.25635,5.71059,61
958,Quaix-en-Chartreuse Place,SEM:GENPLACEQUA,45.25319,5.71732,61
959,Quaix-en-Chartreuse Village,SEM:GENECOLE,45.25346,5.71992,61
960,La Prairie,SEM:GENLAPRAIRI,45.29462,5.76561,62
961,Col de Porte,SEM:GENCOLPORTE,45.28982,5.76704,62
962,Pont du Croz,SEM:GENSARCROZ,45.27669,5.75747,62
963,Sarcenas Le Village,SEM:GENSARCENA,45.2734,5.75861,62
964,Col de Palaquit,SEM:GENPALAQUIT,45.27308,5.7657,62
965,Les Jonquilles,SEM:GENMOLLARSA,45.26467,5.7742,62
966,Churut,SEM:GENCHURU,45.26474,5.77743,62
967,Le Sappey-en-Chartreuse Place,SEM:GENPLACESAP,45.25948,5.77706,62
968,Le Gouillat,SEM:GENLEGOUILL,45.25474,5.77111,62
969,Saint-Eynard,SEM:GENSAINTEYN,45.24926,5.76534,62
970,Hameau de Vence,SEM:GENHVENCE,45.24179,5.75433,62
971,Col de Vence,SEM:GENCOLVENCE,45.234,5.75107,62
972,Batonnière,SEM:GENCHEMBATO,45.22733,5.75876,62
973,La Garenne,SEM:GENGARENNE,45.22729,5.76583,62
974,Rochasson,SEM:GENMOLLARD,45.22364,5.7678,62
975,Providence,SEM:GENPROVIDEN,45.22111,5.76456,62
976,Corenc Village,SEM:GENCORENCVI,45.21983,5.76229,62
977,La Corne d'Or,SEM:GENCORNEDOR,45.21809,5.76046,62
978,Monument,SEM:GENMONUMENT,45.217,5.7536,62
979,Le Gorget,SEM:GENLEGORGET,45.21529,5.74853,62
980,Saint-Germain,SEM:GENSTGERMAI,45.21015,5.74408,62
981,Le Rozan,SEM:GENLERONZA,45.20926,5.7423,62
982,Bastille,SEM:GENBASTILLE,45.20444,5.7376,62
983,Petite Tronche,SEM:GENPTTRONCH,45.20195,5.73416,62
984,Saint-Laurent,SEM:GENSTLAUREN,45.19802,5.73257,62
985,Xavier Jouvin,SEM:GENXAVJOUVI,45.1956,5.73009,62
986,Notre-Dame - Musée,SEM:GENNOTREDAM,45.19358,5.73214,62
987,Saint Egrève Gare,SEM:GENSTEGVGAR,45.23531,5.67151,63
988,Les Bonnais,SEM:GENBONNAIS,45.24058,5.67257,63
989,Karben,SEM:GENKARBEN,45.24235,5.67093,63
990,Rafour,SEM:GENRAFOUR,45.24868,5.66688,63
991,Le Fontanil Mairie,SEM:GENFONTANIM,45.25618,5.66633,63
992,Le Fontanil Cimetière,SEM:GENFONTCIM,45.25823,5.66385,63
993,La Rivoire,SEM:GENLARIVO,45.26869,5.6686,63
994,Fochaire,SEM:GENFOCHAIRE,45.27158,5.67442,63
995,Colavière,SEM:GENCOLAVIER,45.27237,5.67606,63
996,Chemin de Namière,SEM:GENNAMIERE,45.27232,5.67853,63
997,L'Etoile,SEM:GENLETOILE,45.13788,5.7033,64
998,ZI des Iles,SEM:GENZILES,45.13853,5.69449,64
999,Marianne,SEM:GENMARIANNE,45.13495,5.69291,64
1000,120 Toises,SEM:GEN120TOISE,45.13625,5.69496,64
1001,Le Péage,SEM:GENPEAGEDEV,45.0577,5.77102,65
1002,Vizille Lycée,SEM:GENLTE,45.06872,5.76836,65
1003,Place du Château,SEM:GENCHAT,45.07572,5.77221,65
1004,Les Forges,SEM:GENLESFORGE,45.07716,5.76858,65
1005,Parc Vöhringen,SEM:GENVOHRIGEN,45.07888,5.76947,65
1006,L'Alliance,SEM:GENALLIANCE,45.08152,5.76865,65
1007,Chantefeuille,SEM:GENCHANTEFE,45.08058,5.77486,65
1008,Le Grimpillon,SEM:GENGRIMPI,45.08233,5.77515,65
1009,Brié Église,SEM:GENBRIEGLIS,45.11119,5.78653,65
1010,Mont Rolland,SEM:GENBRIE,45.11528,5.78405,65
1011,L'Olympe,SEM:GENBRIECOLE,45.11784,5.78285,65
1012,Le Replat,SEM:GENREPLAT,45.1209,5.78154,65
1013,Les Métraux,SEM:GENMETRA,45.12164,5.78504,65
1014,Le Coin,SEM:GENSOUVEVI,45.12799,5.78511,65
1015,Souveyron,SEM:GENSOUVE,45.13061,5.77825,65
1016,L'Enclos,SEM:GENLENCLOS,45.1333,5.77484,65
1017,Tavernolles,SEM:GENTAVER,45.13628,5.77037,65
1018,Le Verderet,SEM:GENVERDERET,45.14694,5.75428,65
1019,Le Bourg,SEM:GENLEBOURG,45.14781,5.75116,65
1020,Les Javaux,SEM:GENJAVAUX,45.15034,5.7499,65
1021,L'Iliade,SEM:GENILIADE,45.14713,5.74546,65
1022,Pré au Crêt,SEM:GENPREAUCR,45.14405,5.7401,65
1023,François Quesnay,SEM:GENFRQUESNA,45.1479,5.73517,65
1024,Alpexpo,SEM:GENALPEXPO,45.15449,5.73379,65
1025,Polesud - Alpexpo,SEM:GENPOLESUD,45.15715,5.73384,65
1026,Grand'place,SEM:GENGRDPLACE,45.15893,5.73179,65
1027,La Rampe - Centre-Ville,SEM:GENRAMPE,45.14948,5.71818,66
1028,Antoine Polotti,SEM:GENPOLOTTI,45.1486,5.72251,66
1029,Le Château,SEM:GENCHATEAU,45.14732,5.72671,66
1030,Guy Mocquet,SEM:GENGUYMOCQU,45.14548,5.72585,66
1031,Paul Langevin,SEM:GENLANGEVIN,45.14346,5.72313,66
1032,Marie Curie,SEM:GENMARIECUR,45.14523,5.71704,66
1033,Auguste Delaune,SEM:GENADELAUNE,45.14292,5.71527,66
1034,Denis Papin,SEM:GENDENPAPIN,45.13832,5.71307,66
1035,Gay Lussac,SEM:GENGAYLUSSA,45.13645,5.71214,66
1036,Pied de la Combe,SEM:GENCOMBE,45.13446,5.71471,66
1037,Place du Laca,SEM:GENPLACA,45.11379,5.72863,66
1038,Le Plâtre,SEM:GENLEPLATR,45.11776,5.7479,66
1039,Les Thévenets,SEM:GENTHEVE,45.11571,5.75102,66
1040,Les Simianes,SEM:GENSIMIA,45.11612,5.75778,66
1041,Les Chaberts,SEM:GENCHABER,45.10734,5.74936,66
1042,Jarrie Maupertuis,SEM:GENMAUPERTJ,45.10558,5.74645,66
1043,Les Charbonnaux,SEM:GENCHARBON,45.10097,5.74215,66
1044,Le Vernet Croix,SEM:GENVERNET,45.09617,5.73978,66
1045,André Malraux,SEM:GENANMAL,45.09462,5.74417,66
1046,Clos Jouvin,SEM:GENCLOSJUV,45.09693,5.74585,66
1047,Herbeys Le Bourg,SEM:GENHEBOURG,45.13887,5.79311,67
1048,Le Chollet,SEM:GENCHOLLET,45.14025,5.78364,67
1049,Les Angonnes,SEM:GENANGONNES,45.13993,5.77617,67
1050,Beaulieu,SEM:GENBEAULIEU,45.13855,5.77355,67
1051,Tavernolles,SEM:GENTAVER,45.13628,5.77037,67
1052,Le Verderet,SEM:GENVERDERET,45.14694,5.75428,67
1053,Le Bourg,SEM:GENLEBOURG,45.14781,5.75116,67
1054,Les Javaux,SEM:GENJAVAUX,45.15034,5.7499,67
1055,L'Iliade,SEM:GENILIADE,45.14713,5.74546,67
1056,Pré au Crêt,SEM:GENPREAUCR,45.14405,5.7401,67
1057,François Quesnay,SEM:GENFRQUESNA,45.1479,5.73517,67
1058,Alpexpo,SEM:GENALPEXPO,45.15449,5.73379,67
1059,Polesud - Alpexpo,SEM:GENPOLESUD,45.15715,5.73384,67
1060,Grand'place,SEM:GENGRDPLACE,45.15893,5.73179,67
1061,Collège des Saules,SEM:GENCOLLSAUL,45.16143,5.74306,67
1062,Marie Curie,SEM:GENMARIECUR,45.14523,5.71704,68
1063,La Rampe - Centre-Ville,SEM:GENRAMPE,45.14948,5.71818,68
1064,Antoine Polotti,SEM:GENPOLOTTI,45.1486,5.72251,68
1065,Le Château,SEM:GENCHATEAU,45.14732,5.72671,68
1066,Stade,SEM:GENSTADE,45.1435,5.72943,68
1067,Commanderie,SEM:GENCOMMANDE,45.14363,5.73336,68
1068,Avenue de la République,SEM:GENAVREPUB,45.14279,5.73589,68
1069,La Maritelle,SEM:GENMARITELL,45.14162,5.74135,68
1070,Les Vignes,SEM:GENVIGNES,45.13809,5.74574,68
1071,Bresson Mairie,SEM:GENBRESSON,45.1377,5.74771,68
1072,Lagay,SEM:GENLAGAY,45.1408,5.74997,68
1073,Le Crêt,SEM:GENLECRET,45.14391,5.74859,68
1074,Eybens Mairie,SEM:GENEYBMAIRI,45.14733,5.74979,68
1075,Le Verderet,SEM:GENVERDERET,45.14694,5.75428,68
1076,Grand Verger,SEM:GENGDVERGER,45.07385,5.72957,70
1077,Montchaboud Le Village,SEM:GENMONTCHAV,45.09498,5.76482,70
1078,Champ Clocher,SEM:GENCHAMP,45.09222,5.7702,70
1079,Le Grimpillon,SEM:GENGRIMPI,45.08233,5.77515,70
1080,Chantefeuille,SEM:GENCHANTEFE,45.08058,5.77486,70
1081,Ecoles Joliot-Curie,SEM:GENEJCURIE,45.08403,5.77517,70
1082,Collège Les Mattons,SEM:GENCOLMATTO,45.08654,5.77467,70
1083,Camping,SEM:GENCAMPVIZ,45.08593,5.77127,70
1084,Vénaria,SEM:GENVENARIA,45.08187,5.77163,70
1085,L'Alliance,SEM:GENALLIANCE,45.08152,5.76865,70
1086,Parc Vöhringen,SEM:GENVOHRIGEN,45.07888,5.76947,70
1087,Les Forges,SEM:GENLESFORGE,45.07716,5.76858,70
1088,Place du Château,SEM:GENCHAT,45.07572,5.77221,70
1089,Vizille Lycée,SEM:GENLTE,45.06872,5.76836,70
1090,Jarrie Gare,SEM:GENGAREJARR,45.08563,5.74255,70
1091,Pont de Champ,SEM:GENPONTCN,45.0875,5.73031,70
1092,Espace Navarre,SEM:GENROMANCHE,45.08662,5.73067,70
1093,Léo Lagrange,SEM:GENLEOLA,45.08448,5.73474,70
1094,Zola - Mairie,SEM:GENSALLEZOL,45.08261,5.73371,70
1095,Le Pavillon,SEM:GENECOLELP,45.07999,5.73469,70
1096,Marcel Paul,SEM:GENGONNADIE,45.07745,5.73156,70
1097,Stade Perrouault,SEM:GENSTADEPER,45.07559,5.72718,70
1098,ZA La Plaine,SEM:GENCHAMPSD,45.06841,5.72308,70
1099,La Melle,SEM:GENLAMELLE,45.07063,5.72713,70
1100,Place du Laca,SEM:GENPLACA,45.11379,5.72863,71
1101,Le Plâtre,SEM:GENLEPLATR,45.11776,5.7479,71
1102,Les Thévenets,SEM:GENTHEVE,45.11571,5.75102,71
1103,Les Simianes,SEM:GENSIMIA,45.11612,5.75778,71
1104,Les Chaberts,SEM:GENCHABER,45.10734,5.74936,71
1105,Maupertuis,SEM:GENMAUPERTJ,45.10558,5.74645,71
1106,Les Charbonnaux,SEM:GENCHARBON,45.10097,5.74215,71
1107,Le Vernet Croix,SEM:GENVERNET,45.09617,5.73978,71
1108,André Malraux,SEM:GENANMAL,45.09462,5.74417,71
1109,Jarrie Gare,SEM:GENGAREJARR,45.08563,5.74255,71
1110,Notre-Dame-de-Commiers Le Village,SEM:GENNDCV,45.00967,5.70015,73
1111,Les Pauttats,SEM:GENPAUT,45.01148,5.70161,73
1112,Le Moulin,SEM:GENMOULIN,45.01516,5.7045,73
1113,Pré du Bil,SEM:GENPREBIL,45.02466,5.70658,73
1114,Saint-Pierre Eglise,SEM:GENSAINTPE,45.02819,5.70607,73
1115,La Tour,SEM:GENLATOUR,45.03822,5.70418,73
1116,Les Guiberts,SEM:GENGUILBERT,45.03859,5.70576,73
1117,Les Condamines,SEM:GENCONDAM,45.04472,5.70732,73
1118,Le Canal,SEM:GENCANAL,45.05212,5.7104,73
1119,Les Isles,SEM:GENISLE,45.04881,5.70664,73
1120,Les Peupliers,SEM:GENPEUPLE,45.04571,5.70237,73
1121,Saint-Georges-de-Commiers Gare,SEM:GENSTGCOMMI,45.04363,5.70174,73
1122,Vif Gare,SEM:GENVIFGARE,45.04824,5.68573,73
1123,Le Masségu,SEM:GENMASSEGU,45.05194,5.67464,73
1124,Rivalta,SEM:GENVIFGEND,45.05301,5.67655,73
1125,Vif Mairie,SEM:GENVIFMAIRI,45.05584,5.66897,73
